"","X","LIST.ID","EDCS.ID","EDH.ID","not_before","not_after","transcription","clean_text_interpretive_word","type_of_inscription_clean","type_of_inscription_auto","type_of_monument_clean","province","province_label_clean","place","findspot_ancient_clean","findspot_modern_clean","status_notation","Latitude","Longitude","count"
"1",6348,474800,"EDCS-26600652","HD050268",1,14,"Aug(usto) sacr(um) / C(aius) Iulius Macrini lib(ertus) / Martialis IIIIIIvir m(agister) M(ercurialis) ob / honor(em) idem ludos scaenic(os) / per trid(uum) d(edit) et canthar(um) arg(enteum) p(ondo) |S(unciarum septem)","Augusto sacrum Caius Iulius Macrini libertus Martialis IIIIII vir magister Mercurialis ob honorem idem ludos scaenicos per triduum dedit et cantharum argenteum pondo Sunciarum septem","votive inscription","votive inscription","tabula","Dalmatia","Dalmatia","Vid / Narona","Narona","Metković","liberti/libertae, nomen singulare, sacerdotes pagani, seviri Augustales, tria nomina, viri",43.0801,17.625,1
"2",2382,470383,"EDCS-10100662","HD033986",9,19,"I(ovi) O(ptimo) M(aximo) / s(acrum)","Iovi Optimo Maximo sacrum","votive inscription","votive inscription","altar","Dalmatia","Dalmatia","Prijepolje / Municipium Splonistarum","NULL","Prijepolje",NA,43.3891969,19.6496772,1
"3",6351,474803,"EDCS-24900088","HD056758",-30,30,"Q(uintus) Vibius L(uci) f(ilius) / Dianae v(otum) s(olvit) / eisdem aram / d(e) s(uo) f(aciendum) c(uravit)","Quintus Vibius Luci filius Dianae votum solvit eisdem aram de suo faciendum curavit","votive inscription","votive inscription","altar","Dalmatia","Dalmatia","Vid / Narona","Narona","Metković","praenomen et nomen, viri",43.0801,17.625,1
"4",6557,475014,"EDCS-12000832","HD042300",1,30,"Annaea D(ecimi) f(ilia) Maxima / L(uci) Saeni Luculli / Iunon(i) ob honore(m)","Annaea Decimi filia Maxima Luci Saeni Luculli Iunoni ob honorem","votive inscription","votive inscription","statue base","Dalmatia","Dalmatia","Vid / Narona","Narona","Metković","mulieres, tria nomina, viri",43.0801,17.625,1
"5",6556,475013,"EDCS-14800165","HD039847",14,30,"Divo Augusto / sacrum / P(ublius) Dolabella co(n)s(ul) / Caesaris August(i) / leg(atus) pro pr(aetore)","Divo Augusto sacrum Publius Dolabella consul Caesaris Augusti legatus pro praetore","votive inscription","votive inscription","statue base","Dalmatia","Dalmatia","Vid / Narona","Narona","Metković","Augusti/Augustae, ordo senatorius, tria nomina, viri",43.0801,17.625,1
"6",6,467866,"EDCS-28600118","HD062306",14,37,"Iano Patri / Aug(usto) sacrum / C(aius) Iulius C(ai) f(ilius) Ser(gia) / Aetor aed(ilis) / donatus ab Ti(berio) Caes(are) / Aug(usti) f(ilio) Augusto torq(ue) / maiore bello Delma/tico ob honorem / IIviratus cum liberis / suis posuit","Iano Patri Augusto sacrum Caius Iulius Cai filius Sergia Aetor aedilis donatus ab Tiberio Caesare Augusti filio Augusto tor que maiore bello Delmatico ob honorem II viratus cum liberis suis posuit","votive inscription","votive inscription","NULL","Dalmatia","Dalmatia","?","Aenona","Nin","Augusti/Augustae, ordo decurionum, tria nomina, viri",44.2435,15.1842,1
"7",1747,469725,"EDCS-10000216","HD021619",14,37,"[Divo] Augusto et / [T]i(berio) Caes[a]ri Aug(usti) f(ilio) Aug(usto) / sa[cr]um / veterani pagi Scunastic(i) / quibus colonia Naronit(ana) / agros dedit // Divo Augusto et / Ti(berio) Caesari Aug(usti) f(ilio) Aug(usto) / sacrum / veterani pagi Scunast(ici) / quibus colon(ia) Naroni(tana) / agros dedit","Divo Augusto et Tiberio Caesari Augusti filio Augusto sacrum veterani pagi Scunastici quibus colonia Naronitana agros dedit Divo Augusto et Tiberio Caesari Augusti filio Augusto sacrum veterani pagi Scunastici quibus colonia Naronitana agros dedit","votive inscription","votive inscription","tabula","Dalmatia","Dalmatia","Ljubuski / Mlade / Bigeste","Bigeste","Ljubuški","Augusti/Augustae, milites, viri",43.1818,17.5271,1
"8",2073,470067,"EDCS-28400367","HD062325",14,37,"Divo Aug(usto) / sacr(um) / L(ucius) Quinc[t]ius C(ai) f(ilius) / Ga[l]lus testamento / poni iussit","Divo Augusto sacrum Lucius Quinctius Cai filius Gallus testamento poni iussit","votive inscription","votive inscription","NULL","Dalmatia","Dalmatia","Pag","Cissa, insula","Pag","Augusti/Augustae, tria nomina, viri",44.3262,15.207,1
"9",359,468300,"EDCS-15100101","HD052803",1,50,"[------] / [------] / [---] conservatrici(?) / [---] potenti / [------] / Calpurnia L(uci) Pisonis auguris / filia Cn(aei) Pisonis neptis do(num) d(edit)","conservatrici potenti Calpurnia Luci Pisonis auguris filia Cnaei Pisonis neptis donum dedit","votive inscription","votive inscription","altar","Dalmatia","Dalmatia","Caska / Cissa","Cissa","Novalja","mulieres, nomen singulare, ordo senatorius, sacerdotes pagani, viri",44.546,14.914,1
"10",360,468301,"EDCS-67500106","HD029124",1,50,"[------] / [------] / [---] conservatrici(?) / [---] potenti / [------] / Calpurnia L(uci) Pisonis auguris / filia Cn(aei) Pisonis neptis do(num) d(edit)","conservatrici potenti Calpurnia Luci Pisonis auguris filia Cnaei Pisonis neptis donum dedit","votive inscription","votive inscription","altar","Dalmatia","Dalmatia","Caska / Cissa","Cissa","Novalja","mulieres, praenomen et nomen, sacerdotes pagani, viri",44.546,14.914,1
"11",1185,469149,"EDCS-30301398","HD004225",1,50,"Coran/us Iovi/le v(otum) s(olvit)","Coranus Iovile votum solvit","votive inscription","votive inscription","altar","Dalmatia","Dalmatia","Ivosevci / Burnum","Burnum","Kistanje","nomen singulare, viri",44.0317,15.9936,1
"12",1356,469323,"EDCS-10101883","HD035649",1,50,"Iovi / Kalpurn/ia Peculi/aris / v(otum) s(olvit) l(ibens) m(erito)","Iovi Kalpurnia Peculiaris votum solvit libens merito","votive inscription","votive inscription","altar","Dalmatia","Dalmatia","Karin Gornji / Corinium","Corinium","Benkovac","mulieres, tria nomina",44.1075,15.6256,1
"13",1907,469893,"EDCS-10000881","HD034505",1,50,"L(ucius) Sen(tius) / P(atri) Iano / [v(otum) s(olvit)](?) l(ibens) m(erito)","Lucius Sentius Patri Iano votum solvit libens merito","votive inscription","votive inscription","altar","Dalmatia","Dalmatia","Nadin / Nedinum","Nedinum","Benkovac","praenomen et nomen, viri",44.0721,15.5095,1
"14",1982,469969,"EDCS-10000337","HD016279",1,50,"B(onae) D(eae) dom(inae) Heiae A[ug(ustae)] / triumphali terrae / marisq(ue) dominatric[i] / conservatrici / mentiumque bo[n]arum / ac remediorum potenti / deae bene iudicanti / [C]alpurnia L(uci) Pisonis aug(uris) f(ilia) / Cn(aei) Pisonis neptis / d(onum) d(edit)","Bonae Deae dominae Heiae Augustae triumphali terrae maris que dominatrici conservatrici mentium que bonarum ac remediorum potenti deae bene iudicanti Calpurnia Luci Pisonis auguris filia Cnaei Pisonis neptis donum dedit","votive inscription","votive inscription","altar","Dalmatia","Dalmatia","Novalja","Cissa","Novalja","mulieres, nomen singulare, praenomen et nomen, viri",44.546,14.914,1
"15",6558,475015,"EDCS-12000833","HD042301",1,50,"Catena Ter/tulla / Veneri / munus","Catena Tertulla Veneri munus","votive inscription","votive inscription","altar","Dalmatia","Dalmatia","Vid / Narona","Narona","Metković","mulieres, tria nomina",43.0801,17.625,1
"16",6941,509768,"EDCS-10100575","HD033868",1,50,"[Silv]ano Aug(usto) sa(crum) // Aur(e)l(ius) Marci fil(ius) v(otum) s(olvit)","Silvano Augusto sacrum Aurelius Marci filius votum solvit","votive inscription","votive inscription","altar","Pannonia superior","Dalmatia","Gradac","NULL","Kiseljak","nomen singulare, viri",45.6142808,15.2452183,1
"17",6948,523120,NA,"HD051036",1,50,"C(aius) Ar/runt/i(us) v(otum) s(olvit)","Caius Arruntius votum solvit","votive inscription","votive inscription","tabula",NA,"Dalmatia",NA,"Asseria","Benkovac",NA,44.0103,15.6844,1
"18",2003,469992,"EDCS-03000738","HD039963",14,50,"[Div]o Aug(usto) et [Romae] / sacru[m] // [Ara]m Geni[o -]/[--- A]ugustam / [coh(ors)? Ga?]llica vol(untariorum?) / [------](?)","Divo Augusto et Romae sacrum Aram Genio Augustam cohors Gallica voluntariorum","votive inscription","votive inscription","altar","Dalmatia","Dalmatia","Omis / Almissa / Oneum / Onaeum","Oneum","Omiš",NA,43.4422,16.7019,1
"19",6352,474804,"EDCS-26600656","HD039236",14,54,"Dianae Nemore(n)s(i) / sacrum / Ti(berius) Claudius Claud[i]/anus praef(ectus) coh(ortis) I / Bracaraugust(anorum) / ex voto su(s)cep(to) de suo","Dianae Nemorensi sacrum Tiberius Claudius Claudianus praefectus cohortis I Bracaraugustanorum ex voto suscepto de suo","votive inscription","votive inscription","statue base","Dalmatia","Dalmatia","Vid / Narona","Narona","Metković","milites, ordo equester, tria nomina, viri",43.0801,17.625,1
"20",3610,471654,"EDCS-28701352","HD057704",9,56,"------] / [--- m]iles leg(ionis) VI[I ---] / Veneri don[um ob] / [magisteriu?]m cognation[is ---] / [--- Cl]odior(um) CVI(?)[---] / [------","miles legionis VII Veneri donum ob magisterium cognationis Clodiorum CVI","votive inscription","votive inscription","NULL","Dalmatia","Dalmatia","Solin / Salona","Salonae","Solin","milites, viri",43.5384,16.4743,1
"21",2571,470574,"EDCS-08300491","HD003120",42,57,"Herculi / sacrum / P(ublius) Plotius |(centurio) leg(ionis) / VII C(laudiae) p(iae) f(idelis) / v(otum) s(olvit) l(ibens) m(erito)","Herculi sacrum Publius Plotius centurio legionis VII Claudiae piae fidelis votum solvit libens merito","votive inscription","votive inscription","altar","Dalmatia","Dalmatia","Seget Donji / Tragurium","Tragurium","Seget","milites, praenomen et nomen, viri",43.5594,16.524,1
"22",5192,473437,"EDCS-10101029","HD034543",54,63,"------] / [C(aius) Cal]petanus / [Rant]ius Sedatus / [leg(atus) C]aesaris","Caius Calpetanus Rantius Sedatus legatus Caesaris","votive inscription","votive inscription","altar","Dalmatia","Dalmatia","Solin / Salona","Salonae","Solin","ordo senatorius, tria nomina, viri",43.5384,16.4743,1
"23",7084,108903,"EDCS-78300737",NA,1,70,NA,"uttius ntinus A Fortunae pecunia sua restituit",NA,"votive inscription",NA,"Dalmatia",NA,"Vid / Narona",NA,NA,"tria nomina, viri",43.0804139,17.6258524,1
"24",352,468293,"EDCS-03000732","HD039932",9,70,"------] / [--]VL[---] / [b(ene)]f(iciarius) co[(n)s(ularis) ex] / [l]eg(ione) XI [Cl(audiae)] / [v(otum)] s(olvit) [l(ibens) m(erito)]","VL beneficiarius consularis ex legione XI Claudiae votum solvit libens merito","votive inscription","votive inscription","altar","Dalmatia","Dalmatia","Cacak / Malvesiatium","Municipium Malvesiatium","Lučani","milites, viri",43.9667,19.5333,1
"25",6233,474681,"EDCS-46600038","HD056480",31,70,"[H]ercul[i] / Aug(usto) sac(rum) / Donatus / Cn(aei) Corneli / Certi v(otum) s(olvit) l(ibens)","Herculi Augusto sacrum Donatus Cnaei Corneli Certi votum solvit libens","votive inscription","votive inscription","altar","Dalmatia","Dalmatia","Trogir / Tragurium","Tragurium","Trogir","nomen singulare, tria nomina, viri",43.5594,16.524,1
"26",92,468016,"EDCS-32300071","HD052240",69,79,"[T(itus) F]lavius / [---]ditanus / [civ(itate?) d]on(atus) ab / [Imp(eratore)] Vespasiano / Ca[e]sare Aug(usto) / pra[e]positu[s] / et p[rin]cep[s] / Iapo[d]um / [v(otum) s(olvit) l(ibens) m(erito)]","Titus Flavius ditanus civitate donatus ab Imperatore Vespasiano Caesare Augusto praepositus et princeps Iapodum votum solvit libens merito","votive inscription","votive inscription","altar","Dalmatia","Dalmatia","Bihac / Raetinium","Raetinium","Bihać","Augusti/Augustae, milites, ordo decurionum, tria nomina, viri",44.7885,15.9292,1
"27",2725,470728,"EDCS-65000045","HD072483",79,81,"Divo Aug(usto) e[t] / divo Vespasian[o] / ex auctoritat[e] / [Imp(eratoris)] T(iti) Caesaris divi Ve[sp(asiani) f(ili) Vesp(asiani)] / [Augu]sti conventus L[iburnor(um)] / Scardonis c[onsecravit?]","Divo Augusto et divo Vespasiano ex auctoritate Imperatoris Titi Caesaris divi Vespasiani fili Vespasiani Augusti conventus Liburnorum Scardonis consecravit","votive inscription","votive inscription","tabula","Dalmatia","Dalmatia","Skradin / Scardona","Scardona; Tragurium","Skradin; Trogir","Augusti/Augustae, viri",43.8227,15.9208,1
"28",7078,108850,"EDCS-73900199",NA,79,81,NA,"Divo Augusto et divo Vespasiano ex auctoritate Imperatoris Titi Caesaris divi Vespasiani filii Vespasiani Augusti conventus Liburnorum Scardonis consecravit",NA,"votive inscription",NA,"Dalmatia",NA,"Trogir / Tragurium",NA,NA,"Augusti/Augustae, viri",43.516687,16.2499724,1
"29",2203,470201,"EDCS-10101916","HD035263",-30,100,"Senton(a)e / Sex(tus) Aem(ilius) / v(otum) s(olvit) l(ibens) m(erito)","Sentonae Sextus Aemilius votum solvit libens merito","votive inscription","votive inscription","altar","Dalmatia","Dalmatia","Plomin / Flanona","Flanona","Kršan","praenomen et nomen, viri",45.1382,14.1801,1
"30",6724,475183,"EDCS-24400841","HD053497",-30,100,"Isidi Serapi Liber(o) / Liberae voto / suscepto pro salute / Scapulae filii sui / P(ublius) Quinctius Paris / s(olvit) l(ibens) m(erito)","Isidi Serapi Libero Liberae voto suscepto pro salute Scapulae filii sui Publius Quinctius Paris solvit libens merito","votive inscription","votive inscription","altar","Dalmatia","Dalmatia","Zadar / Iader","Iader","Zadar","mulieres, nomen singulare, tria nomina, viri",44.115501,15.223778,1
"31",147,468073,"EDCS-08500497","HD000683",1,100,"I(ovi) O(ptimo) M(aximo) / sacr(um) / P(ublius) Vo/lusi/us Se/[---](?) / [------?","Iovi Optimo Maximo sacrum Publius Volusius Se","votive inscription","votive inscription","altar","Dalmatia","Dalmatia","Blagaj","NULL","Novi Grad","tria nomina, viri",43.2575855,17.8904391,1
"32",163,468089,"EDCS-10100765","HD022752",1,100,"S(ilvano) S(ilvestri) Primus / Vepi l(ibens) p(osuit)","Silvano Silvestri Primus Vepi libens posuit","votive inscription","votive inscription","altar","Dalmatia","Dalmatia","Bosansko Grahovo / Municipium Salvium","NULL","Bosansko Grahovo","nomen singulare, viri",44.1808174,16.36568,1
"33",231,468160,"EDCS-30301389","HD061582",1,100,"L(ucius) Aeroni/us Silvano / v(otum) s(olvit) l(ibens) m(erito)","Lucius Aeronius Silvano votum solvit libens merito","votive inscription","votive inscription","altar","Dalmatia","Dalmatia","Bribir / Bribirska Glavica / Varvaria","Varvaria","Skradin","praenomen et nomen, viri",43.8892,15.9051,1
"34",488,468431,"EDCS-10000767","HD034201",1,100,"[------](?) // [---] vilicus / [--- ex] voto","vilicus ex voto","votive inscription","votive inscription","relief","Dalmatia","Dalmatia","Citluk / Aequum","Aequum","Sinj, bei","officium/professio, viri",43.7423,16.6547,1
"35",791,468743,"EDCS-57200004","HD053934",1,100,"I Mac(edonica) le[g(io)] / [I]ovi o(ptimo) m(aximo) / v(otum) [s(olvit)] l(ibens) m(erito)","I Macedonica legio Iovi optimo maximo votum solvit libens merito","votive inscription","votive inscription","altar","Dalmatia","Dalmatia","Galovac / Iader","Iader","Galovac","milites",43.9393,15.4483,1
"36",792,468744,"EDCS-30101159","HD045053",1,100,"Gen[io] / [------","Genio","votive inscription","votive inscription","tabula","Dalmatia","Dalmatia","Gardun / Tilurium","Tilurium","Trilj",NA,43.6139,16.689,1
"37",1186,469150,"EDCS-30301399","HD061475",1,100,"Iovi Op(timo) M(aximo) / T(itus) Fufisius sig(nifer) / v(otum) s(olvit) l(ibens) m(erito)","Iovi Optimo Maximo Titus Fufisius signifer votum solvit libens merito","votive inscription","votive inscription","altar","Dalmatia","Dalmatia","Ivosevci / Burnum","Burnum","Kistanje","milites, praenomen et nomen, viri",44.0317,15.9936,1
"38",1187,469151,"EDCS-30301400","HD061477",1,100,"------](?) / C(aius?) Voc[onius](?) / M(arci) f(ilius) Iovi","Caius Voconius Marci filius Iovi","votive inscription","votive inscription","altar","Dalmatia","Dalmatia","Ivosevci / Burnum","Burnum","Kistanje","praenomen et nomen, viri",44.0317,15.9936,1
"39",1322,469288,"EDCS-28400133","HD060047",1,100,"Iano Pat[ri] / Q(uintus) Ennius [-] / f(ilius) Agrippa / v(otum) s(olvit) l(ibens) m(erito)","Iano Patri Quintus Ennius filius Agrippa votum solvit libens merito","votive inscription","votive inscription","altar","Dalmatia","Dalmatia","Karin Gornji / Corinium","Corinium","Benkovac","tria nomina, viri",44.1075,15.6256,1
"40",1481,469454,"EDCS-08900525","HD005985",1,100,"L(ibero) P(atri) A(ugusto) / Cordi/us Ur/sinus","Libero Patri Augusto Cordius Ursinus","votive inscription","votive inscription","altar","Dalmatia","Dalmatia","Kolovrat / Municipium Splonistarum","NULL","Prijepolje","tria nomina, viri",43.3691604,19.626587,1
"41",1640,469617,"EDCS-30400622","HD061801",1,100,"Sex(tus) C[eion(ius)?] / Vol(timesis?) f(ilius?) [---] / v(otum) s(olvit) l(ibens) m(erito)","Sextus Ceionius Voltimesis filius votum solvit libens merito","votive inscription","votive inscription","altar","Dalmatia","Dalmatia","Labin / Alvona","Albona","Labin","viri",45.0949,14.1232,1
"42",1720,469698,"EDCS-10100751","HD034061",1,100,"------] / [---]sus[---] / [---]aeq(---) p(osuit) l(ibens) m(erito) [---](?)","sus aeq posuit libens merito","votive inscription","votive inscription","tabula","Dalmatia","Dalmatia","Livno / Bariduum / Delminium","NULL","Livno","ordo decurionum, viri",43.8259136,17.0042416,1
"43",1906,469892,"EDCS-10000299","HD021805",1,100,"T(itus)(?) Octavius / C(ai) f(ilius) Macer |(centurio) / cohor(tis) I / Liburnorum / Iano Patri / v(otum) s(olvit) l(ibens) m(erito)","Titus Octavius Cai filius Macer centurio cohortis I Liburnorum Iano Patri votum solvit libens merito","votive inscription","votive inscription","altar","Dalmatia","Dalmatia","Nadin / Nedinum","Nedinum","Benkovac","milites, tria nomina, viri",44.0721,15.5095,1
"44",1908,469894,"EDCS-10000882","HD034506",1,100,"Trivi(i)s / sacr(um) / C(aius) Iulius / Celer / v(otum) s(olvit) l(ibens) m(erito)","Triviis sacrum Caius Iulius Celer votum solvit libens merito","votive inscription","votive inscription","altar","Dalmatia","Dalmatia","Nadin / Nedinum","Nedinum","Benkovac","tria nomina, viri",44.0721,15.5095,1
"45",2281,470279,"EDCS-31900020","HD058062",1,100,"T(itus) Iulius / Dianae / v(otum) s(olvit) l(ibens) m(erito)","Titus Iulius Dianae votum solvit libens merito","votive inscription","votive inscription","altar","Dalmatia","Dalmatia","Podgrade / Asseria","Alveria","Lišane Ostrovičke","praenomen et nomen, viri",43.9937,15.8139,1
"46",2393,470394,"EDCS-16000504","HD027049",1,100,"Liberai(!) / Iulia M(a)ximina / v(otum) s(olvit) l(ibens) m(erito)","Liberai Iulia Maximina votum solvit libens merito","votive inscription","votive inscription","altar","Dalmatia","Dalmatia","Pritoka / Raetinium","Raetinium","Bihać","mulieres, tria nomina",44.7885,15.9292,1
"47",2610,470613,"EDCS-10100902","HD021249",1,100,"[G]enio / Osiniatiu[m] / P(ublius) Rapidiu[s] / signifer / c(o)h[ortis] / [------","Genio Osiniatium Publius Rapidius signifer cohortis","votive inscription","votive inscription","altar","Dalmatia","Dalmatia","Sinj / Osinium","Senia","Senj","milites, praenomen et nomen, viri",44.9931,14.902,1
"48",2726,470729,"EDCS-57200037","HD054127",1,100,"M(agnae) M(atri) / Mescenia P(ubli) f(ilia) port(i)c(um) / f(ecit) d(e) s(ua) p(ecunia)","Magnae Matri Mescenia Publi filia porticum fecit de sua pecunia","votive inscription","votive inscription","NULL","Dalmatia","Dalmatia","Skrip / Brattia","NULL","Supetar","mulieres, praenomen et nomen",43.3546077,16.603408,1
"49",2862,470873,"EDCS-27500033","HD053745",1,100,"I(ovi) O(ptimo) M(aximo) / sacrum / L(ucius) Egnatius L(uci) f(ilius) / Cn(aei) nep(os) Cn(aei) pronep(os) / Tro(mentina) Clemens / decurio augur","Iovi Optimo Maximo sacrum Lucius Egnatius Luci filius Cnaei nepos Cnaei pronepos Tromentina Clemens decurio augur","votive inscription","votive inscription","cliff","Dalmatia","Dalmatia","Solin / Salona","Salonae","Klis","ordo decurionum, sacerdotes pagani, tria nomina, viri",43.5384,16.4743,1
"50",3615,471660,"EDCS-28701358","HD034680",1,100,"P(ublius) Cloelius miles c(o)ho(rtis) Campanae custos Traguri / v(otum) s(olvit) l(ibens) m(erito)","Publius Cloelius miles cohortis Campanae custos Traguri votum solvit libens merito","votive inscription","votive inscription","tabula","Dalmatia","Dalmatia","Solin / Salona","Salonae","Solin","milites, praenomen et nomen, viri",43.5384,16.4743,1
"51",3715,471761,"EDCS-28900133","HD060148",1,100,"------](?) / Min[ervae? ---] / aede I(?)[---] / M(arcus) Trosiu[s ---] / Magnus [---]","Minervae aede I Marcus Trosius Magnus","votive inscription","votive inscription","tabula","Dalmatia","Dalmatia","Solin / Salona","Salonae","Solin","tria nomina, viri",43.5384,16.4743,1
"52",6509,474966,"EDCS-66100167","HD060609",1,100,"C(aius) Iulius C(ai) [f(ilius) ---] / Cerialis [--- coh(ortis)] / Campan[ae] / Castori et [Polluci] / v(otum) s(olvit) [l(ibens) m(erito)]","Caius Iulius Cai filius Cerialis cohortis Campanae Castori et Polluci votum solvit libens merito","votive inscription","votive inscription","altar","Dalmatia","Dalmatia","Vid / Narona","Narona","Metković","milites, tria nomina, viri",43.0801,17.625,1
"53",6523,474980,"EDCS-10000214","HD032926",1,100,"[------] / [s]ac(rum) / ob honore(m) / IIvir(atus) C(ai) Vibi Res/tituti C(aius) Iulius / Maximus pos(uit)","sacrum ob honorem II viratus Cai Vibi Restituti Caius Iulius Maximus posuit","votive inscription","votive inscription","altar","Dalmatia","Dalmatia","Vid / Narona","Narona","Metković","ordo decurionum, tria nomina, viri",43.0801,17.625,1
"54",6875,475337,"EDCS-10101898","HD035665",1,100,"Dis / Salutari/bus / Cn(aeus) Corne/lius Severus / ob periculum / quod evase/rat","Dis Salutaribus Cnaeus Cornelius Severus ob periculum quod evaserat","votive inscription","votive inscription","altar","Dalmatia","Dalmatia","Zadar / Iader","Iader","Zadar","tria nomina, viri",44.115501,15.223778,1
"55",1617,469594,"EDCS-28400303","HD061824",14,100,"Nymphis / Aug(ustis) sacr(um) / ex voto sus/cepto pro sa/lute municipi(i) / balineo effect(o) / Ti(berius) Gavillius C(ai) f(ilius) / Claud(ia) Lambicus / aed(ilis) IIvir posuit","Nymphis Augustis sacrum ex voto suscepto pro salute municipii balineo effecto Tiberius Gavillius Cai filius Claudia Lambicus aedilis II vir posuit","votive inscription","votive inscription","NULL","Dalmatia","Dalmatia","Labin / Alvona","Albona","Labin","ordo decurionum, tria nomina, viri",45.0949,14.1232,1
"56",993,468946,"EDCS-32700505","HD060571",42,100,"------] / Nymp[his] / sacr[um] / [-?] Iulius [---]/us |(centurio) l[eg(ionis)] / [VII] C(laudiae) p(iae) [f(idelis)] / [cu?]m Pri[------","Nymphis sacrum Iulius us centurio legionis VII Claudiae piae fidelis cum Pri","votive inscription","votive inscription","altar","Dalmatia","Dalmatia","Gornji Muc / Andetrium","Andetrium","Muć","milites, tria nomina, viri",43.6922,16.5206,1
"57",6375,474827,"EDCS-27500105","HD053391",51,100,"Saturno / Aug(usto) sac(rum) / Claudia / Aesernina / sacerdos / divae Augustae / t(estamento) p(oni) i(ussit)","Saturno Augusto sacrum Claudia Aesernina sacerdos divae Augustae testamento poni iussit","votive inscription","votive inscription","NULL","Dalmatia","Dalmatia","Vid / Narona","Narona","Metković","Augusti/Augustae, mulieres, sacerdotes pagani, tria nomina",43.0801,17.625,1
"58",6215,474662,"EDCS-10100883","HD034286",71,100,"Silvano Aug(usto) / sac(rum) Iul(ius) Cass/ianus mil(es) coh(ortis) / [------","Silvano Augusto sacrum Iulius Cassianus miles cohortis","votive inscription","votive inscription","altar","Dalmatia","Dalmatia","Trilj / Tilurium","Tilurium","Trilj","milites, tria nomina, viri",43.6139,16.689,1
"59",7013,107029,"EDCS-71300207",NA,71,100,NA,"Iovi Optimo Maximo Varius R TI cohortis I miliariae ex iussu libens",NA,"votive inscription",NA,"Dalmatia",NA,"Doboj",NA,NA,"milites, tria nomina, viri",44.7313612,18.0847183,1
"60",6511,474968,"EDCS-32500118","HD060606",96,117,"Iovi Au[gusto] / sacr[um] / colle[g(ium) Aug(ustalium)? s(ub)? c(ura)?] / L(ucio) Pub[licio?] / Diadu[meno] / Aug(ustale) / F(laviale) T(itiale) [N(erviale)? ---]","Iovi Augusto sacrum collegium Augustalium sub cura Lucio Publicio Diadumeno Augustale Flaviale Titiale Nerviale","votive inscription","votive inscription","altar","Dalmatia","Dalmatia","Vid / Narona","Narona","Metković","sacerdotes pagani, seviri Augustales, tria nomina, viri",43.0801,17.625,1
"61",6347,474799,"EDCS-27500091","HD053374",98,117,"Aesculapio / Aug(usto) sacr(um) / P(ublius) Servilius [---] / IIIIIIvir [August(alis) Flav]/ialis [Titialis] / Nervialis testam[ento] / pon(endum) iussit ex [HS ---] / et ob dedicationem / [------]","Aesculapio Augusto sacrum Publius Servilius IIIIII vir Augustalis Flavialis Titialis Nervialis testamento ponendum iussit ex HS et ob dedicationem","votive inscription","votive inscription","NULL","Dalmatia","Dalmatia","Vid / Narona","Narona","Metković","sacerdotes pagani, seviri Augustales, viri",43.0801,17.625,1
"62",5541,473872,"EDCS-57200030","HD053954",1,130,"P(ublius) [---] / Pa[---] / Ma[tri Magnae? ---] / [-] vo[tum? ---]","Publius Pa Matri Magnae votum","votive inscription","votive inscription","stele","Dalmatia","Dalmatia","Solin / Salona","Salonae","Solin","viri",43.5384,16.4743,1
"63",6725,475184,"EDCS-30800341","HD060135",1,130,"Iunoni Augustae / Appuleia M(arci) fil(ia) Quinta / suo et L(uci) Turpilii Brocchi / Liciniani filii nomine / test(amento) poni iuss(it)","Iunoni Augustae Appuleia Marci filia Quinta suo et Luci Turpilii Brocchi Liciniani filii nomine testamento poni iussit","votive inscription","votive inscription","statue base","Dalmatia","Dalmatia","Zadar / Iader","Iader","Zadar","mulieres, tria nomina, viri",44.115501,15.223778,1
"64",6962,523197,NA,"HD060136",1,130,"Iovi Augusto / Appuleia M(arci) f(ilia) Quinta / suo et L(uci) Turpilii Brocch[i] / Liciniani filii nomine t(estamento) [p(oni) i(ussit)]","Iovi Augusto Appuleia Marci filia Quinta suo et Luci Turpilii Brocchi Liciniani filii nomine testamento poni iussit","votive inscription","votive inscription","statue base",NA,"Dalmatia",NA,"Iader","Zadar",NA,44.115501,15.223778,1
"65",684,468634,"EDCS-27400546","HD053182",71,130,"------] / F[l]avia / C(ai) filia / [li?]b(ens?) pos(uit) / l(ocus) d(atus) d(ecreto) d(ecurionum)","Flavia Cai filia libens posuit locus datus decreto decurionum","votive inscription","votive inscription","NULL","Dalmatia","Dalmatia","Duklja / Duklje / Rusevine / Doclea","Doclea","Podgorica","mulieres",42.469,19.2615,1
"66",6355,474807,"EDCS-26600657","HD050362",71,130,"I(ovi) O(ptimo) Aet(erno) / T(itus) F(lavius?) M/agnus / ex voto","Iovi Optimo Aeterno Titus Flavius Magnus ex voto","votive inscription","votive inscription","NULL","Dalmatia","Dalmatia","Vid / Narona","Narona","Metković","tria nomina, viri",43.0801,17.625,1
"67",2854,470864,"EDCS-27500028","HD049788",137,137,"L(ucio) Aelio Caesare II P(ublio) Coelio Balbino Vibullio Pio co(n)s(ulibus) / VII Idus Octobres / C(aius) Domitius Valens IIvir i(ure) d(icundo) praeeunte C(aio) Iulio Severo pontif(ice) / legem dixit in ea verba quae infra scripta sunt / Iuppiter Optime Maxime quandoque tibi hodie hanc aram dabo dedicaboque ollis legib(us) / ollisque regionibus dabo dedicaboque quas hic hodie palam dixero uti infimum solum huius arae est / si quis hic hostia sacrum faxit quod magmentum nec protollat it circo tamen probe factum esto ceterae / leges huic arae eaedem sunto quae arae Dianae sunt in Aventino monte dictae hisce legibus hisce regionib(us) / sic uti dixi hanc tibi aram Iuppiter Optime Maxime do dico dedicoque uti sis volens propitius mihi collegisque / meis decurionibus colonis incolis coloniae Martia[e I]uliae Salonae coniugibus liberisque nostri[s]","Lucio Aelio Caesare II Publio Coelio Balbino Vibullio Pio consulibus VII Idus Octobres Caius Domitius Valens II vir iure dicundo praeeunte Caio Iulio Severo pontifice legem dixit in ea verba quae infra scripta sunt Iuppiter Optime Maxime quando que tibi hodie hanc aram dabo dedicabo que ollis legibus ollis que regionibus dabo dedicabo que quas hic hodie palam dixero uti infimum solum huius arae est si quis hic hostia sacrum faxit quod magmentum nec protollat it circo tamen probe factum esto ceterae leges huic arae eaedem sunto quae arae Dianae sunt in Aventino monte dictae hisce legibus hisce regionibus sic uti dixi hanc tibi aram Iuppiter Optime Maxime do dico dedico que uti sis volens propitius mihi collegis que meis decurionibus colonis incolis coloniae Martiae Iuliae Salonae coniugibus liberis que nostris","votive inscription","votive inscription","tabula","Dalmatia","Dalmatia","Solin / Salona","Salonae","Solin","mulieres, ordo decurionum, sacerdotes pagani, tria nomina, viri",43.5384,16.4743,1
"68",8,467869,"EDCS-28600121","HD060162",1,150,"Trivis / C(aius) Aristius / Clemens // ex vot[o l(ibens) s(olvit)] m(erito)","Trivis Caius Aristius Clemens ex voto libens solvit merito","votive inscription","votive inscription","altar","Dalmatia","Dalmatia","?","Iader","Zadar","tria nomina, viri",44.115501,15.223778,1
"69",94,468018,"EDCS-31300292","HD052238",1,150,"B[i]ndo Neptuno / sacr(um) / Licinus Teuda / praep(ositus) et pri[n(ceps)] / Ia[p]odum / v(otum) s(olvit) l(ibens) m(erito)","Bindo Neptuno sacrum Licinus Teuda praepositus et princeps Iapodum votum solvit libens merito","votive inscription","votive inscription","altar","Dalmatia","Dalmatia","Bihac / Raetinium","Raetinium","Bihać","ordo decurionum, tria nomina, viri",44.7885,15.9292,1
"70",169,468095,"EDCS-28400346","HD056615",1,150,"H(erculi) A(ugusto) s(acrum) / [S?]al&lt;v=N?&gt;ius Obul/tronius / De[x]ter ","Herculi Augusto sacrum Sal lt v gt ius Obultronius Dexter","votive inscription","votive inscription","NULL","Dalmatia","Dalmatia","Brac, Otok / Brattia","NULL","Supetar","tria nomina, viri",43.3239838,16.654819,1
"71",232,468161,"EDCS-10000833","HD034372",1,150,"L(ucius) Iulius / Restitutu[s] / [Silva]no / [sacrum]","Lucius Iulius Restitutus Silvano sacrum","votive inscription","votive inscription","altar","Dalmatia","Dalmatia","Bribir / Bribirska Glavica / Varvaria","Varvaria","Skradin","tria nomina, viri",43.8892,15.9051,1
"72",236,468165,"EDCS-10000827","HD034366",1,150,"T(---) Darmo / Iano / v(otum) s(olvit) l(ibens) m(erito)","T Darmo Iano votum solvit libens merito","votive inscription","votive inscription","altar","Dalmatia","Dalmatia","Bribir / Bribirska Glavica / Varvaria","Varvaria","Skradin","praenomen et nomen, viri",43.8892,15.9051,1
"73",238,468167,"EDCS-10000829","HD034368",1,150,"Iulia / [-] f(ilia) Te[r]tulla / [N]ymp(h)is / [v(otum) s(olvit) l(ibens) m(erito)]","Iulia filia Tertulla Nymphis votum solvit libens merito","votive inscription","votive inscription","altar","Dalmatia","Dalmatia","Bribir / Bribirska Glavica / Varvaria","Varvaria","Skradin","mulieres, tria nomina",43.8892,15.9051,1
"74",239,468168,"EDCS-10000830","HD034369",1,150,"Terentia / T(iti) f(ilia) Secund[a] / Nymphis / [v(otum) s(olvit) l(ibens) m(erito)]","Terentia Titi filia Secunda Nymphis votum solvit libens merito","votive inscription","votive inscription","altar","Dalmatia","Dalmatia","Bribir / Bribirska Glavica / Varvaria","Varvaria","Skradin","mulieres, tria nomina",43.8892,15.9051,1
"75",242,468171,"EDCS-10000834","HD034373",1,150,"Ieta / Aeronia / C(ai) f(ilia) v(otum) s(olvit) l(ibens) [m(erito)]","Ieta Aeronia Cai filia votum solvit libens merito","votive inscription","votive inscription","altar","Dalmatia","Dalmatia","Bribir / Bribirska Glavica / Varvaria","Varvaria","Skradin","mulieres, praenomen et nomen",43.8892,15.9051,1
"76",243,468172,"EDCS-10000835","HD034374",1,150,"Mutilia / [-] f(ilia) Maxi/ma(?) ZICN / [v(otum)] s(olvit) l(ibens) m(erito)","Mutilia filia Maxima ZICN votum solvit libens merito","votive inscription","votive inscription","altar","Dalmatia","Dalmatia","Bribir / Bribirska Glavica / Varvaria","Varvaria","Skradin","mulieres, tria nomina",43.8892,15.9051,1
"77",247,468176,"EDCS-10000840","HD034379",1,150,"Darmoca / Ceunae l(iberta) / Secunda / [------","Darmoca Ceunae liberta Secunda","votive inscription","votive inscription","altar","Dalmatia","Dalmatia","Bribir / Bribirska Glavica / Varvaria","Varvaria","Skradin","liberti/libertae, mulieres, nomen singulare, tria nomina",43.8892,15.9051,1
"78",249,468178,"EDCS-10000954","HD015550",1,150,"Marti sac(rum) / Turus Longini f(ilius) / dec(urio) et sacerdotali(s) / pro suis et cognation(e) / Nantania / de suo v(otum) s(olvit) l(ibens) m(erito)","Marti sacrum Turus Longini filius decurio et sacerdotalis pro suis et cognatione Nantania de suo votum solvit libens merito","votive inscription","votive inscription","altar","Dalmatia","Dalmatia","Bribir / Bribirska Glavica / Varvaria","Varvaria","Skradin","mulieres, nomen singulare, ordo decurionum, sacerdotes pagani, viri",43.8892,15.9051,1
"79",287,468217,"EDCS-30200433","HD034398",1,150,"Tytulius / Panentis / Silvano Do/mestico pos(uit)","Tytulius Panentis Silvano Domestico posuit","votive inscription","votive inscription","altar","Dalmatia","Dalmatia","Burnum","Burnum","Kistanje","nomen singulare, viri",44.0317,15.9936,1
"80",315,468245,"EDCS-31200515","HD057623",1,150,"[- Do]mitiu[s] / [R]ufus / [L]atrae / v(otum) s(olvit) l(ibens) m(erito)","Domitius Rufus Latrae votum solvit libens merito","votive inscription","votive inscription","altar","Dalmatia","Dalmatia","Burnum","Asseria","Benkovac","tria nomina, viri",44.0103,15.6844,1
"81",316,468246,"EDCS-31200516","HD057618",1,150,"&lt;L=I&gt;(ucius) Dom[itius] / Ru[fus] / [------ ","lt L gt ucius Domitius Rufus","votive inscription","votive inscription","altar","Dalmatia","Dalmatia","Burnum","Asseria","Benkovac","tria nomina, viri",44.0103,15.6844,1
"82",362,468303,"EDCS-27400579","HD053294",1,150,"[------] / sac[rum] / Q(uintus) Fulv[ius] / Clem[ens] / v(otum) s(olvit) l(ibens) m(erito)","sacrum Quintus Fulvius Clemens votum solvit libens merito","votive inscription","votive inscription","NULL","Dalmatia","Dalmatia","Cavtat / Epidaurum","Epidaurum","Konavle","tria nomina, viri",42.5848,18.2137,1
"83",370,468311,"EDCS-27400593","HD052962",1,150,"------]lustratores / [---]us Placidus et / [---]un(ius) Epidianus IIviri","lustratores us Placidus et unius Epidianus II viri","votive inscription","votive inscription","altar","Dalmatia","Dalmatia","Cavtat / Epidaurum","Epidaurum","Konavle","officium/professio, ordo decurionum, tria nomina, viri",42.5848,18.2137,1
"84",410,468351,"EDCS-28300053","HD061978",1,150,"I(ovi) O(ptimo) M(aximo) / M(arcus) Plaetori/us Albanus / posuit","Iovi Optimo Maximo Marcus Plaetorius Albanus posuit","votive inscription","votive inscription","NULL","Dalmatia","Dalmatia","Citluk / Aequum","Aequum","Sinj","tria nomina, viri",43.7423,16.6547,1
"85",412,468353,"EDCS-28300055","HD061980",1,150,"Libero Aug(usto) / sacrum / L(ucius) Aebutius L(uci) f(ilius) / Ser(gia) Celer ae[d(ilis)] / IIvir i(uri) d(icundo) ex pe[c(unia) p(ublica)]","Libero Augusto sacrum Lucius Aebutius Luci filius Sergia Celer aedilis II vir iuri dicundo ex pecunia publica","votive inscription","votive inscription","NULL","Dalmatia","Dalmatia","Citluk / Aequum","Aequum","Sinj","ordo decurionum, tria nomina, viri",43.7423,16.6547,1
"86",432,468374,"EDCS-30100422","HD061970",1,150,"[Veneri?] / [Ge]netrici / [--]CL[---] / [---]M[---] / Cn(aei) f(ilius) [---] / [d]omo [---] / N in [---] / [-]quitat(---) [---] / [---]I ex [viso?] / [------?","Veneri Genetrici CL M Cnaei filius domo N in quitat I ex viso","votive inscription","votive inscription","NULL","Dalmatia","Dalmatia","Citluk / Aequum","Aequum","Sinj","viri",43.7423,16.6547,1
"87",489,468432,"EDCS-10101963","HD035316",1,150,"------] / Servi[---] / C(ai) l(ibertus) Fus[---] / p(osuit) v(oto) [s(oluto)]","Servi Cai libertus Fus posuit voto soluto","votive inscription","votive inscription","altar","Dalmatia","Dalmatia","Cres / Crexa","Apsorus","Mali Lošinj","liberti/libertae, tria nomina, viri",44.693,14.3919,1
"88",513,468457,"EDCS-28300096","HD062410",1,150,"I(ovi) O(ptimo) M(aximo) / C(aius) Arrius / Agaeviv[us](?) / fec(it)","Iovi Optimo Maximo Caius Arrius Agaevivus fecit","votive inscription","votive inscription","NULL","Dalmatia","Dalmatia","Danilo Gornje / Rider","Rider","Šibenik","tria nomina, viri",43.7034,16.0486,1
"89",514,468458,"EDCS-28300097","HD062408",1,150,"I(ovi) O(ptimo) M(aximo) / sac(rum) / Iettus / Dasantis","Iovi Optimo Maximo sacrum Iettus Dasantis","votive inscription","votive inscription","NULL","Dalmatia","Dalmatia","Danilo Gornje / Rider","Rider","Šibenik","nomen singulare, viri",43.7034,16.0486,1
"90",515,468459,"EDCS-28300098","HD062407",1,150,"Maxima Turi / Nymphis","Maxima Turi Nymphis","votive inscription","votive inscription","NULL","Dalmatia","Dalmatia","Danilo Gornje / Rider","Rider","Šibenik","mulieres, nomen singulare, viri",43.7034,16.0486,1
"91",551,468495,"EDCS-30301378","HD061859",1,150,"A(ulus) Larcius / Clemens / Trivi(i)s / v(otum) s(olvit) l(ibens) m(erito)","Aulus Larcius Clemens Triviis votum solvit libens merito","votive inscription","votive inscription","altar","Dalmatia","Dalmatia","Danilo Gornje / Rider","Rider","Šibenik","tria nomina, viri",43.7034,16.0486,1
"92",566,468511,"EDCS-10000267","HD033154",1,150,"I(ovi) O(ptimo) M(aximo) / Pinsus &lt;G=C&gt;er/manicus / Turi f(ilius) ","Iovi Optimo Maximo Pinsus lt G gt ermanicus Turi filius","votive inscription","votive inscription","altar","Dalmatia","Dalmatia","Danilo Gornje / Rider","Rider","Šibenik","nomen singulare, tria nomina, viri",43.7034,16.0486,1
"93",567,468512,"EDCS-10000268","HD033157",1,150,"------](?) / MAC(?)[---] / Planus / Verzu[l]/us [--] et / Paio Ter/minio / v(otum) s(olverunt) l(ibentes) m(erito)","MAC Planus Verzulus et Paio Terminio votum solverunt libentes merito","votive inscription","votive inscription","altar","Dalmatia","Dalmatia","Danilo Gornje / Rider","Rider","Šibenik","tria nomina, viri",43.7034,16.0486,1
"94",568,468513,"EDCS-10000269","HD033160",1,150,"Silv(a)no / Atisus / [--] v(otum)(?) m(erito)(?)","Silvano Atisus votum merito","votive inscription","votive inscription","altar","Dalmatia","Dalmatia","Danilo Gornje / Rider","Rider","Šibenik","viri",43.7034,16.0486,1
"95",569,468514,"EDCS-10000270","HD033163",1,150,"[S(ilvano)] S(ilvestri) s(acrum) / [M]aximus / [Ge]rmani/ci l(ibertus)","Silvano Silvestri sacrum Maximus Germanici libertus","votive inscription","votive inscription","altar","Dalmatia","Dalmatia","Danilo Gornje / Rider","Rider","Šibenik","liberti/libertae, nomen singulare, viri",43.7034,16.0486,1
"96",570,468515,"EDCS-10000271","HD033166",1,150,"S(ilvano) S(ilvestri) M[es(sori)?] / s(acrum) Aneius / Caecili/us [---]","Silvano Silvestri Messori sacrum Aneius Caecilius","votive inscription","votive inscription","altar","Dalmatia","Dalmatia","Danilo Gornje / Rider","Rider","Šibenik","tria nomina, viri",43.7034,16.0486,1
"97",593,468538,"EDCS-10000802","HD034273",1,150,"Verna [---] / [-]ran[--- f(ilius)?] / Sil(vano) Silv(estri) [---] / [------?","Verna ran filius Silvano Silvestri","votive inscription","votive inscription","altar","Dalmatia","Dalmatia","Danilo Gornje / Rider","Rider","Šibenik","nomen singulare, servi/servae, viri",43.7034,16.0486,1
"98",658,468606,"EDCS-30200163","HD057911",1,150,"S(ilvano) A(ugusto) s(acrum) / Titus / Candalio / pos(uit)","Silvano Augusto sacrum Titus Candalio posuit","votive inscription","votive inscription","altar","Dalmatia","Dalmatia","Dragovic","NULL","Vrlika","tria nomina, viri",45.469965,17.2766853,1
"99",674,468624,"EDCS-10000938","HD034593",1,150,"D(ianae) A(ugustae) s(acrum) / [E]u(h)emer(us) servus Aug(usti) / v(otum) l(ibens) s(olvit) m(erito)","Dianae Augustae sacrum Euhemerus servus Augusti votum libens solvit merito","votive inscription","votive inscription","relief","Dalmatia","Dalmatia","Dugi Otok","NULL","Sali","nomen singulare, servi/servae, viri",44.0211315,15.0315195,1
"100",979,468932,"EDCS-28300068","HD061925",1,150,"Castori / et Polluci / sac{e}rum / Fabericia / Pieris / v(otum) s(olvit) l(ibens) m(erito)","Castori et Polluci sacerum Fabericia Pieris votum solvit libens merito","votive inscription","votive inscription","NULL","Dalmatia","Dalmatia","Gornji Muc / Andetrium","Andetrium","Muć","mulieres, tria nomina",43.6922,16.5206,1
"101",1044,468999,"EDCS-10101867","HD035459",1,150,"Titia M(arci) filia / Rufina / TAB[---] / v(otum?) s(olvit)(?) l(ibens)(?) [m(erito)](?)","Titia Marci filia Rufina TAB votum solvit libens merito","votive inscription","votive inscription","altar","Dalmatia","Dalmatia","Gradina / Domavium","Sidrona","Benkovac","mulieres, tria nomina",44.1354,15.7481,1
"102",1049,469004,"EDCS-10101872","HD029694",1,150,"Val(etudini) Sta(tae?) sac(rum) / Lurnio Cal(purnia?) / v(otum) s(olvit) l(ibens)","Valetudini Statae sacrum Lurnio Calpurnia votum solvit libens","votive inscription","votive inscription","altar","Dalmatia","Dalmatia","Gradina / Domavium","Sidrona","Obrovac","tria nomina, viri",44.1354,15.7481,1
"103",1060,469015,"EDCS-30301449","HD058031",1,150,"Vesia / C(ai) f(ilia) Qui/ncta / v(otum) s(olvit) l(ibens) m(erito)","Vesia Cai filia Quincta votum solvit libens merito","votive inscription","votive inscription","altar","Dalmatia","Dalmatia","Gradina di Perusic","Asseria","Benkovac","mulieres, tria nomina",44.0103,15.6844,1
"104",1134,469093,"EDCS-30900093","HD061124",1,150,"L(ucius) Rustius Picen[s] / tr(ibunus) mil(itum) vovi[t] / praef(ectus) eq(uitum) fec[it]","Lucius Rustius Picens tribunus militum vovit praefectus equitum fecit","votive inscription","votive inscription","statue base","Dalmatia","Dalmatia","Hvar / Lesina / Pharia","Pharia, insula","Hvar","milites, ordo equester, ordo senatorius, tria nomina, viri",43.1725,16.4428,1
"105",1202,469166,"EDCS-32700562","HD061330",1,150,"------](?) / [---]SV[---] / [--- v(otum)?] l(ibens?) s(olvit?) m(erito?) [---] / [---] NiceP(?)[hor-? ---] / [--- T]hallu[s ---]","SV votum libens solvit merito NicePhor Thallus","votive inscription","votive inscription","NULL","Dalmatia","Dalmatia","Ivosevci / Burnum","Burnum","Kistanje","viri",44.0317,15.9936,1
"106",1342,469308,"EDCS-30301477","HD035650",1,150,"Iovi O(ptimo) M(aximo) / [---]ter(?) L(uci) l(ibertus) Seve[rus] / v(otum) s(olvit) l(ibens) m(erito)","Iovi Optimo Maximo ter Luci libertus Severus votum solvit libens merito","votive inscription","votive inscription","altar","Dalmatia","Dalmatia","Karin Gornji / Corinium","Corinium","Benkovac","liberti/libertae, tria nomina, viri",44.1075,15.6256,1
"107",1343,469309,"EDCS-30301478","HD060034",1,150,"Latra[e ---] / Q(uintus) Calpurnius Sex(ti) f(ilius) Ser(gia) F[---] / [v(otum)](?) l(ibens?) m(erito?) [p(osuit)](?)","Latrae Quintus Calpurnius Sexti filius Sergia F votum libens merito posuit","votive inscription","votive inscription","NULL","Dalmatia","Dalmatia","Karin Gornji / Corinium","Corinium","Benkovac","tria nomina, viri",44.1075,15.6256,1
"108",1354,469321,"EDCS-30200439","HD035655",1,150,"Oppia / C(ai) f(ilia) / [A?]equina / v(otum) s(olvit) l(ibens) m(erito)","Oppia Cai filia Aequina votum solvit libens merito","votive inscription","votive inscription","altar","Dalmatia","Dalmatia","Karin Gornji / Corinium","Corinium","Novigrad","mulieres, tria nomina",44.1075,15.6256,1
"109",1357,469324,"EDCS-10101884","HD030510",1,150,"Libero Patr(i) / Q(uintus) (H)ostilius / [Ba]rcinus v(oto) f(ecit)","Libero Patri Quintus Hostilius Barcinus voto fecit","votive inscription","votive inscription","altar","Dalmatia","Dalmatia","Karin Gornji / Corinium","Corinium","Benkovac","tria nomina, viri",44.1075,15.6256,1
"110",1381,469348,"EDCS-10101800","HD027942",1,150,"Silvano Aug(usto) sacr(um) pro salute et reditu Luci Pomponi / Valentini Lucius Pomponius Restutus cliens","Silvano Augusto sacrum pro salute et reditu Luci Pomponi Valentini Lucius Pomponius Restutus cliens","votive inscription","votive inscription","architectural member","Dalmatia","Dalmatia","Kastel Sucurac / Salona","Salonae","Kaštela","liberti/libertae, tria nomina, viri",43.5384,16.4743,1
"111",1390,469357,"EDCS-30301402","HD061479",1,150,"C(aius) Atilius / Macedo / v(otum) s(olvit)","Caius Atilius Macedo votum solvit","votive inscription","votive inscription","altar","Dalmatia","Dalmatia","Kistanje / Burnum","NULL","Kistanje - Lišane Ostrovičke, zwischen","tria nomina, viri",43.9814264,15.9653321,1
"112",1616,469593,"EDCS-28400302","HD061823",1,150,"Libero Pa(tri) / Aug(usto) sac(rum) / L(ucius) Volumn/ius Pudens / v(otum) s(olvit) l(ibens) m(erito) / fecit D(---)","Libero Patri Augusto sacrum Lucius Volumnius Pudens votum solvit libens merito fecit D","votive inscription","votive inscription","altar","Dalmatia","Dalmatia","Labin / Alvona","Albona","Labin","tria nomina, viri",45.0949,14.1232,1
"113",1636,469613,"EDCS-30400618","HD061805",1,150,"L(ucius) Granius / Voltimes(is) f(ilius) / Rufus Iutossicae v(otum) / s(olvit) l(ibens) m(erito)","Lucius Granius Voltimesis filius Rufus Iutossicae votum solvit libens merito","votive inscription","votive inscription","altar","Dalmatia","Dalmatia","Labin / Alvona","Albona","Labin","nomen singulare, tria nomina, viri",45.0949,14.1232,1
"114",1637,469614,"EDCS-30400619","HD061804",1,150,"Geminus / Boninus / Hostiducis / Sentonae / v(otum) s(olvit) l(ibens) m(erito)","Geminus Boninus Hostiducis Sentonae votum solvit libens merito","votive inscription","votive inscription","altar","Dalmatia","Dalmatia","Labin / Alvona","Albona","Labin, bei","nomen singulare, tria nomina, viri",45.0949,14.1232,1
"115",1646,469623,"EDCS-10101926","HD035272",1,150,"Acaica Hoia / pro Benigna / et Iadestin(o) v(otum) s(olvit)","Acaica Hoia pro Benigna et Iadestino votum solvit","votive inscription","votive inscription","altar","Dalmatia","Dalmatia","Labin / Alvona","Albona","Labin","mulieres, nomen singulare, tria nomina",45.0949,14.1232,1
"116",1647,469624,"EDCS-10101927","HD035273",1,150,"------]/[n]ama / Sex(ti) f(ilia) / Matto / v(otum) s(olvit) l(ibens) m(erito)","nama Sexti filia Matto votum solvit libens merito","votive inscription","votive inscription","altar","Dalmatia","Dalmatia","Labin / Alvona","Albona","Labin","mulieres, tria nomina",45.0949,14.1232,1
"117",1661,469638,"EDCS-30301388","HD061581",1,150,"[---]ae Aug(ustae) / [---]ia Apli f(ilia) / [---]unda pro se / [et s]uis voto sus/[cept]o port(icum) fec(it)","ae Augustae ia Apli filia unda pro se et suis voto suscepto porticum fecit","votive inscription","votive inscription","altar","Dalmatia","Dalmatia","Lastve, Bribir","Varvaria","Skradin","mulieres, tria nomina",43.8892,15.9051,1
"118",1764,469742,"EDCS-27500177","HD053668",1,150,"I(ovi) O(ptimo) M(aximo) L(ucius)(?) Numerius Valens","Iovi Optimo Maximo Lucius Numerius Valens","votive inscription","votive inscription","architectural member","Dalmatia","Dalmatia","Makarska","Muccurum","Makarska","tria nomina, viri",43.2969,17.0178,1
"119",1861,469847,"EDCS-57200136","HD052276",1,150,"Latrae A[ug(ustae)?] / libentes Gel[lii?] / sub Clod(io) Gem[ino?] / aedile [[[fecerunt?]]]","Latrae Augustae libentes Gellii sub Clodio Gemino aedile fecerunt","votive inscription","votive inscription","NULL","Dalmatia","Dalmatia","Nadin / Nedinum","Nedinum","Benkovac","ordo decurionum, tria nomina, viri",44.0721,15.5095,1
"120",1863,469849,"EDCS-28300187","HD058151",1,150,"Pupillor(um) / Moicorum / liberta / Dumma La/trae v(otum) s(olvit) l(ibens) m(erito)","Pupillorum Moicorum liberta Dumma Latrae votum solvit libens merito","votive inscription","votive inscription","altar","Dalmatia","Dalmatia","Nadin / Nedinum","Nedinum","Benkovac","liberti/libertae, mulieres, nomen singulare, tria nomina, viri",44.0721,15.5095,1
"121",1864,469850,"EDCS-28300188","HD058230",1,150,"C(aius) Iulius / Picusi f(ilius) / Ceunus / Latrae / v(otum) s(olvit) l(ibens) m(erito)","Caius Iulius Picusi filius Ceunus Latrae votum solvit libens merito","votive inscription","votive inscription","NULL","Dalmatia","Dalmatia","Nadin / Nedinum","Nedinum","Benkovac","nomen singulare, tria nomina, viri",44.0721,15.5095,1
"122",1886,469872,"EDCS-30301467","HD058224",1,150,"Recus Senti/us Iovi Op&lt;t=I&gt;(imo) / Maxumo / v(otum) s(olvit) l(ibens) m(erito) ","Recus Sentius Iovi Op lt t gt imo Maxumo votum solvit libens merito","votive inscription","votive inscription","altar","Dalmatia","Dalmatia","Nadin / Nedinum","Nedinum","Benkovac","tria nomina, viri",44.0721,15.5095,1
"123",1917,469903,"EDCS-28400225","HD060340",1,150,"Iano Aug(usto) / sacrum / Cinius Genial/is pro salute o/rdinis sui et civi/um suorum si/mulacrum &lt;e=T&gt;i / reformavit a&lt;t=D&gt;/que restitui&lt;t=D&gt; ","Iano Augusto sacrum Cinius Genialis pro salute ordinis sui et civium suorum simulacrum lt e gt i reformavit a lt t gt que restitui lt t gt","votive inscription","votive inscription","NULL","Dalmatia","Dalmatia","Nin / Aenona","Aenona","Nin","tria nomina, viri",44.2435,15.1842,1
"124",1918,469904,"EDCS-28400226","HD009272",1,150,"Neptuno Dian(ae) / propt(er) mai(estatem) / L(ucius) Cincius / Trophim(us) / ex viso p(osuit) / quod (H)alis // vidit","Neptuno Dianae propter maiestatem Lucius Cincius Trophimus ex viso posuit quod Halis vidit","votive inscription","votive inscription","NULL","Dalmatia","Dalmatia","Nin / Aenona","Aenona","Nin","nomen singulare, tria nomina, viri",44.2435,15.1842,1
"125",1919,469905,"EDCS-28400227","HD060341",1,150,"Veneri A[ug(ustae)] / sacr(um) Egnatia / C(ai) f(ilia) Paullina s(olvit) / l(ibens) m(erito)","Veneri Augustae sacrum Egnatia Cai filia Paullina solvit libens merito","votive inscription","votive inscription","NULL","Dalmatia","Dalmatia","Nin / Aenona","Aenona","Nin","mulieres, tria nomina",44.2435,15.1842,1
"126",1939,469925,"EDCS-30400580","HD060335",1,150,"L(ucius) Cornelius / Sabinus / Silvano v(otum) s(olvit) l(ibens) m(erito)","Lucius Cornelius Sabinus Silvano votum solvit libens merito","votive inscription","votive inscription","altar","Dalmatia","Dalmatia","Nin / Aenona","Aenona","Vir, Insel - Nin, zwischen","tria nomina, viri",44.2435,15.1842,1
"127",1944,469930,"EDCS-32300057","HD034574",1,150,"[Silva?]no sac[rum] / [--- Co]rneliu[s ---] / [v(otum)? s(olvit)? l(ibens)?] m(erito?)","Silvano sacrum Cornelius votum solvit libens merito","votive inscription","votive inscription","altar","Dalmatia","Dalmatia","Nin / Aenona","Aenona","Nin","viri",44.2435,15.1842,1
"128",1946,469932,"EDCS-32300059","HD060345",1,150,"Curtic(us?) / Ser(gia) [---] / [------] / v(otum) s(olvit) l(ibens) [m(erito)]","Curticus Sergia votum solvit libens merito","votive inscription","votive inscription","altar","Dalmatia","Dalmatia","Nin / Aenona","Aenona","Privlaka, bei","viri",44.2435,15.1842,1
"129",1974,469960,"EDCS-15700109","HD020721",1,150,"Veneri Ansotic(ae) / sacrum / Baebia C(ai) f(ilia) Maximil/la ex testament(o) / L(uci) Corneli Bassi fecit","Veneri Ansoticae sacrum Baebia Cai filia Maximilla ex testamento Luci Corneli Bassi fecit","votive inscription","votive inscription","tabula","Dalmatia","Dalmatia","Nin / Aenona","Aenona","Nin","mulieres, tria nomina, viri",44.2435,15.1842,1
"130",1975,469961,"EDCS-15900045","HD021960",1,150,"T(itus) Appuleius T(iti) L(uci) l(ibertus) Antigonius / Anzoticae / v(otum) s(olvit)","Titus Appuleius Titi Luci libertus Antigonius Anzoticae votum solvit","votive inscription","votive inscription","tabula","Dalmatia","Dalmatia","Nin / Aenona","Aenona","Nin","liberti/libertae, tria nomina, viri",44.2435,15.1842,1
"131",2032,470025,"EDCS-28400390","HD062324",1,150,"Artifici/bus Miner(vae) / Babullia / Sex(ti) f(ilia) Maxi/[m]a v(otum) s(olvit)","Artificibus Minervae Babullia Sexti filia Maxima votum solvit","votive inscription","votive inscription","NULL","Dalmatia","Dalmatia","Osor / Opsorus","Apsorus","Mali Lošinj","mulieres, tria nomina",44.693,14.3919,1
"132",2187,470185,"EDCS-28400287","HD061843",1,150,"M(arcus) / Vipsanus / M(arci) l(ibertus) / Faustus / Icae / v(otum) s(olvit) l(ibens) m(erito)","Marcus Vipsanus Marci libertus Faustus Icae votum solvit libens merito","votive inscription","votive inscription","NULL","Dalmatia","Dalmatia","Plomin / Flanona","Flanona","Kršan","liberti/libertae, tria nomina, viri",45.1382,14.1801,1
"133",2188,470186,"EDCS-28400288","HD061844",1,150,"Iriae Aug(ustae) / in memoriam / Vibiae Portiae / matris / Aquilia Q(uinti) f(ilia) Colatina / d(onum) d(edit)","Iriae Augustae in memoriam Vibiae Portiae matris Aquilia Quinti filia Colatina donum dedit","votive inscription","votive inscription","NULL","Dalmatia","Dalmatia","Plomin / Flanona","Flanona","Kršan","mulieres, tria nomina",45.1382,14.1801,1
"134",2189,470187,"EDCS-28400289","HD061845",1,150,"Iri(a)e Veneri / C(aia) Vale(ria) Optati &lt;f=E&gt;(ilia) / Felicula / v(otum) s(olvit) l(ibens) m(erito) ","Iriae Veneri Caia Valeria Optati lt f gt ilia Felicula votum solvit libens merito","votive inscription","votive inscription","altar","Dalmatia","Dalmatia","Plomin / Flanona","NULL","Kršan","nomen singulare, tria nomina, viri",45.1380212,14.1801746,1
"135",2264,470262,"EDCS-30301439","HD058026",1,150,"------] / ANOI(?)[---] / L(ucius) Publicius / Tertius / v(otum) s(olvit) l(ibens) m(erito)","ANOI Lucius Publicius Tertius votum solvit libens merito","votive inscription","votive inscription","NULL","Dalmatia","Dalmatia","Podgrade / Asseria","Asseria","Benkovac","tria nomina, viri",44.0103,15.6844,1
"136",2265,470263,"EDCS-30301440","HD058027",1,150,"I(ovi) O(ptimo) M(aximo) / Cassia Pa[uli?]/[n?]a ex v[oto] / [--- posuit]","Iovi Optimo Maximo Cassia Paulina ex voto posuit","votive inscription","votive inscription","altar","Dalmatia","Dalmatia","Podgrade / Asseria","Asseria","Benkovac","mulieres, tria nomina",44.0103,15.6844,1
"137",2266,470264,"EDCS-30301441","HD058028",1,150,"Libero Patri / sac(rum) / Iulia Firmi/lla v(otum) s(olvit) l(ibens) / m(erito)","Libero Patri sacrum Iulia Firmilla votum solvit libens merito","votive inscription","votive inscription","altar","Dalmatia","Dalmatia","Podgrade / Asseria","Asseria","Benkovac","mulieres, tria nomina",44.0103,15.6844,1
"138",2267,470265,"EDCS-30301442","HD058029",1,150,"[M(atri)] M(agnae) / C(aius) Petronius / Philippus","Matri Magnae Caius Petronius Philippus","votive inscription","votive inscription","altar","Dalmatia","Dalmatia","Podgrade / Asseria","Asseria","Benkovac","tria nomina, viri",44.0103,15.6844,1
"139",2282,470280,"EDCS-31900021","HD058063",1,150,"Minuci(a) / Secunda / v(otum) s(olvit) l(ibens) m(erito)","Minucia Secunda votum solvit libens merito","votive inscription","votive inscription","NULL","Dalmatia","Dalmatia","Podgrade / Asseria","Asseria","Benkovac","mulieres, tria nomina",44.0103,15.6844,1
"140",2293,470291,"EDCS-10000867","HD034402",1,150,"Volltisa / Iovi v(otum) s(olvit) l(ibens) m(erito) / Caminis l(iberta)","Volltisa Iovi votum solvit libens merito Caminis liberta","votive inscription","votive inscription","altar","Dalmatia","Dalmatia","Podgrade / Asseria","Asseria","Benkovac","liberti/libertae, mulieres, nomen singulare, viri",44.0103,15.6844,1
"141",2296,470294,"EDCS-10000870","HD034405",1,150,"------] / T(itus) Domiti/us Severu[s] / [v(otum) s(olvit) l(ibens) m(erito)]","Titus Domitius Severus votum solvit libens merito","votive inscription","votive inscription","altar","Dalmatia","Dalmatia","Podgrade / Asseria","Asseria","Benkovac","tria nomina, viri",44.0103,15.6844,1
"142",2304,470302,"EDCS-10000879","HD034504",1,150,"Rubria / Ceuni f(ilia) Pola / Saluti / v(otum) s(olvit) [l(ibens) m(erito)]","Rubria Ceuni filia Pola Saluti votum solvit libens merito","votive inscription","votive inscription","altar","Dalmatia","Dalmatia","Podgrade / Asseria","Asseria","Benkovac","mulieres, nomen singulare, tria nomina",44.0103,15.6844,1
"143",2420,470421,"EDCS-28400368","HD057995",1,150,"Iovi / Optimo / Maximo / Sex(tus) Quinctilius / Q(uinti) f(ilius) Seneca veter(anus) / coh(ortis) IIII pr(aetoriae) / v(otum) s(olvit) l(ibens) m(erito)","Iovi Optimo Maximo Sextus Quinctilius Quinti filius Seneca veteranus cohortis IIII praetoriae votum solvit libens merito","votive inscription","votive inscription","NULL","Dalmatia","Dalmatia","Rab, Otok / Arba","Arba","Rab","milites, tria nomina, viri",44.7565,14.7596,1
"144",2496,470498,"EDCS-10100811","HD033018",1,150,"------] / [Statia] L(uci) f(ilia) / Clementia / Iunoni Lucinae / v(otum) s(olvit) l(ibens) m(erito)","Statia Luci filia Clementia Iunoni Lucinae votum solvit libens merito","votive inscription","votive inscription","altar","Dalmatia","Dalmatia","Risan / Risano / Risinium","Acruvium","Tivat","mulieres, tria nomina",42.4438,18.689,1
"145",2588,470591,"EDCS-10000332","HD011817",1,150,"M(agnae) D(eum) M(atri) Aug(ustae) sa[crum] / Verridia Psych[e ---]","Magnae Deum Matri Augustae sacrum Verridia Psyche","votive inscription","votive inscription","architectural member","Dalmatia","Dalmatia","Senj / Segna / Zengg / Senia","Senia","Senj","mulieres, tria nomina",44.9931,14.902,1
"146",2597,470600,"EDCS-55900002","HD065626",1,150,"Harmo/niae sac(rum) / [-](?) Naius / [------","Harmoniae sacrum Naius","votive inscription","votive inscription","altar","Dalmatia","Dalmatia","Shkoder / Shkodra / Skutari / Scodra","Scodra","Shkodra","viri",42.0743,19.5277,1
"147",2600,470603,"EDCS-30600021","HD061862",1,150,"I(ovi) O(ptimo) M(aximo) / Apludu[s ---] / MEVERTENS Pl[a]/dom[e]ni filiu[s] / A(?) magi[st]ro(?) [-](?) / pub(lice?)","Iovi Optimo Maximo Apludus MEVERTENS Pladomeni filius A magistro publice","votive inscription","votive inscription","NULL","Dalmatia","Dalmatia","Sibenik / Rider","Rider","Šibenik","officium/professio, viri",43.7034,16.0486,1
"148",2684,470687,"EDCS-28300133","HD019324",1,150,"Iovi Ta/ranuco / Arria Suc/cessa v(otum) s(olvit)","Iovi Taranuco Arria Successa votum solvit","votive inscription","votive inscription","altar","Dalmatia","Dalmatia","Skradin / Scardona","Scardona","Skradin","mulieres, tria nomina",43.8227,15.9208,1
"149",2686,470689,"EDCS-28300135","HD061633",1,150,"------] / Mutilia P(ubli) [f(ilia)] / Nertilla / v(otum) s(olvit) l(ibens) m(erito)","Mutilia Publi filia Nertilla votum solvit libens merito","votive inscription","votive inscription","NULL","Dalmatia","Dalmatia","Skradin / Scardona","Scardona","Skradin","mulieres, tria nomina",43.8227,15.9208,1
"150",2695,470698,"EDCS-28300144","HD061637",1,150,"T(itus) Plotius / Clemens / Libero Pat(ri) / aram / v(otum) s(olvit) l(ibens) m(erito)","Titus Plotius Clemens Libero Patri aram votum solvit libens merito","votive inscription","votive inscription","NULL","Dalmatia","Dalmatia","Skradin / Scardona","NULL","Tribunj","tria nomina, viri",43.8178655,15.923372,1
"151",2696,470699,"EDCS-28300145","HD061638",1,150,"C(aius) Turranius / C(ai) f(ilius) Severus / evoc(atus) Aug(usti) / [L]atrae aram / p(osuit)","Caius Turranius Cai filius Severus evocatus Augusti Latrae aram posuit","votive inscription","votive inscription","NULL","Dalmatia","Dalmatia","Skradin / Scardona","NULL","Skradin - Kistanje, zwischen","milites, tria nomina, viri",43.8227,15.9208,1
"152",2703,470706,"EDCS-32300038","HD061660",1,150,"Marti Aug(usto) / sacr(um) / C(aius) Terentius / Celsus evoc(atus) / Aug(usti) v(otum) s(olvit) l(ibens) m(erito)","Marti Augusto sacrum Caius Terentius Celsus evocatus Augusti votum solvit libens merito","votive inscription","votive inscription","tabula","Dalmatia","Dalmatia","Skradin / Scardona","Alveria","Lišane Ostrovičke","milites, tria nomina, viri",43.9937,15.8139,1
"153",2736,470741,"EDCS-06100479","HD018315",1,150,"[D(eo)](?) S(ilvano) Silv(estri) A(ugusto) s(acrum) / Q(uintus) Bovius / Rufinus / v(otum) s(olvit) l(ibens) m(erito)","Deo Silvano Silvestri Augusto sacrum Quintus Bovius Rufinus votum solvit libens merito","votive inscription","votive inscription","altar","Dalmatia","Dalmatia","Solin / Salona","Salonae","Solin","tria nomina, viri",43.5384,16.4743,1
"154",2855,470865,"EDCS-27500029","HD053726",1,150,"------] / Caesia / T(iti) f(ilia) / Secunda / Boati / Aesculapio / [------","Caesia Titi filia Secunda Boati Aesculapio","votive inscription","votive inscription","honorific/grave/votive column","Dalmatia","Dalmatia","Solin / Salona","Salonae","Solin","mulieres, tria nomina",43.5384,16.4743,1
"155",2859,470870,"EDCS-27500031","HD053739",1,150,"Fortunae / Domestic(ae) sac(rum) / A(ulus) Obultronius / Beryllus","Fortunae Domesticae sacrum Aulus Obultronius Beryllus","votive inscription","votive inscription","NULL","Dalmatia","Dalmatia","Solin / Salona","Salonae","Solin","tria nomina, viri",43.5384,16.4743,1
"156",2864,470875,"EDCS-27500035","HD053748",1,150,"I(ovi) O(ptimo) [M(aximo)] / sac[r(um)] / A(ulus) Obu[ltro]/[n]iu[s](?) [---]","Iovi Optimo Maximo sacrum Aulus Obultronius","votive inscription","votive inscription","NULL","Dalmatia","Dalmatia","Solin / Salona","Salonae","Solin","viri",43.5384,16.4743,1
"157",2868,470879,"EDCS-27500038","HD053840",1,150,"Iovi O&lt;pt=E&gt;imo / Maximo / c(a)elesti patrono / G(aius) Caesius Corym/bus et Faberia / Cara v(otum) s(olverunt) l(ibentes) m(erito) ","Iovi O lt pt gt imo Maximo caelesti patrono Gaius Caesius Corymbus et Faberia Cara votum solverunt libentes merito","votive inscription","votive inscription","altar","Dalmatia","Dalmatia","Solin / Salona","Salonae","Solin","mulieres, tria nomina, viri",43.5384,16.4743,1
"158",2885,470896,"EDCS-27500050","HD053929",1,150,"Veneri / Victrici / in memoriam / Albuciae C(ai) f(iliae) / Pontiae / uxoris / M(arcus) Marius Pau/lus l(ocus) d(atus) d(ecreto) d(ecurionum)","Veneri Victrici in memoriam Albuciae Cai filiae Pontiae uxoris Marcus Marius Paulus locus datus decreto decurionum","votive inscription","votive inscription","statue base","Dalmatia","Dalmatia","Solin / Salona","Salonae","Solin","mulieres, tria nomina, viri",43.5384,16.4743,1
"159",3563,471602,"EDCS-30600574","HD062328",1,150,"P(ublius) Valeriu(s) / P(ubli) f(ilius) Rufus / Lymphis sacr(um)","Publius Valerius Publi filius Rufus Lymphis sacrum","votive inscription","votive inscription","altar","Dalmatia","Dalmatia","Solin / Salona","Salonae","Solin","tria nomina, viri",43.5384,16.4743,1
"160",3585,471629,"EDCS-28701375","HD062338",1,150,"Iovi / Certus filiu[s ------","Iovi Certus filius","votive inscription","votive inscription","altar","Dalmatia","Dalmatia","Solin / Salona","Salonae","Solin","viri",43.5384,16.4743,1
"161",3604,471648,"EDCS-28701347","HD062379",1,150,"Nymphis / M(arcus) Thorius / Valens / v(otum) s(olvit) l(ibens) m(erito)","Nymphis Marcus Thorius Valens votum solvit libens merito","votive inscription","votive inscription","altar","Dalmatia","Dalmatia","Solin / Salona","Salonae","Kaštela","tria nomina, viri",43.5384,16.4743,1
"162",3614,471659,"EDCS-28701357","HD062387",1,150,"Clodia / Maxima / v(otum) s(olvit) l(ibens) m(erito)","Clodia Maxima votum solvit libens merito","votive inscription","votive inscription","altar","Dalmatia","Dalmatia","Solin / Salona","Salonae","Solin","mulieres, tria nomina",43.5384,16.4743,1
"163",3619,471664,"EDCS-28701361","HD062414",1,150,"C(aius) Sei(us) Nym(---) // v(otum) s(olvit) l(ibens) / m(erito)","Caius Seius Nym votum solvit libens merito","votive inscription","votive inscription","altar","Dalmatia","Dalmatia","Solin / Salona","Salonae","Klis, bei","praenomen et nomen, viri",43.5384,16.4743,1
"164",3620,471665,"EDCS-28701382","HD062417",1,150,"C(aius) V(---) M(---) / votum / [------","Caius V M votum","votive inscription","votive inscription","NULL","Dalmatia","Dalmatia","Solin / Salona","Salonae","Solin","tria nomina, viri",43.5384,16.4743,1
"165",4850,473056,"EDCS-32700237","HD028360",1,150,"I(ovi) O(ptimo) M(aximo) / L(ucius) Septumius(!) / Secundus","Iovi Optimo Maximo Lucius Septumius Secundus","votive inscription","votive inscription","NULL","Dalmatia","Dalmatia","Solin / Salona","Salonae","Solin","tria nomina, viri",43.5384,16.4743,1
"166",4852,473058,"EDCS-32700238","HD061573",1,150,"[L]ibero Pat(ri) / Aug(usto) sa[c(rum)] / Iulia A(uli) l(iberta) M[a]/xima ex [v(iso)] / posuit","Libero Patri Augusto sacrum Iulia Auli liberta Maxima ex viso posuit","votive inscription","votive inscription","NULL","Dalmatia","Dalmatia","Solin / Salona","Salonae","Solin","liberti/libertae, mulieres, tria nomina",43.5384,16.4743,1
"167",5125,473366,"EDCS-10000689","HD034089",1,150,"Sex(tus) Erboni/us Ingenu(u)s cu[m] / co(n)iuge et m(atre) / Spei sacr(um)","Sextus Erbonius Ingenuus cum coniuge et matre Spei sacrum","votive inscription","votive inscription","altar","Dalmatia","Dalmatia","Solin / Salona","Salonae","Solin","mulieres, tria nomina, viri",43.5384,16.4743,1
"168",6235,474683,"EDCS-28300001","HD058436",1,150,"Pullia C(ai) f(ilia) / Surisca / Nimp(h)is(!) / v(otum) s(olvit) l(ibens) m(erito)","Pullia Cai filia Surisca Nimphis votum solvit libens merito","votive inscription","votive inscription","NULL","Dalmatia","Dalmatia","Trogir / Tragurium","Tragurium","Trogir","mulieres, tria nomina",43.5594,16.524,1
"169",6350,474802,"EDCS-27500159","HD053375",1,150,"Ce[r]eri san[ct(ae)] / C(aius) Frisius Marinus / v(otum) s(olvit) l(ibens) m(erito)","Cereri sanctae Caius Frisius Marinus votum solvit libens merito","votive inscription","votive inscription","NULL","Dalmatia","Dalmatia","Vid / Narona","Narona","Kula Norinska","tria nomina, viri",43.0801,17.625,1
"170",6358,474810,"EDCS-27500096","HD053380",1,150,"I(ovi) O(ptimo) M(aximo) / L(ucius) Munnius Imnis / v(otum) s(olvit) l(ibens) m(erito)","Iovi Optimo Maximo Lucius Munnius Imnis votum solvit libens merito","votive inscription","votive inscription","NULL","Dalmatia","Dalmatia","Vid / Narona","Narona","Metković","tria nomina, viri",43.0801,17.625,1
"171",6364,474816,"EDCS-24900090","HD053383",1,150,"L(ucius) Laetili[us ---] / Liber(o) P[atri ---] / eisdem [---]","Lucius Laetilius Libero Patri eisdem","votive inscription","votive inscription","NULL","Dalmatia","Dalmatia","Vid / Narona","Narona","Metković","viri",43.0801,17.625,1
"172",6370,474822,"EDCS-27500101","HD053385",1,150,"L(ucius) Magius / Princeps / Merc(urio) v(otum) s(olvit)","Lucius Magius Princeps Mercurio votum solvit","votive inscription","votive inscription","honorific/grave/votive column","Dalmatia","Dalmatia","Vid / Narona","Narona","Metković","tria nomina, viri",43.0801,17.625,1
"173",6467,474924,"EDCS-31900267","HD060629",1,150,"Libero Pat[ri] / sacrum / M(arcus) Sextius / Epaphroditus","Libero Patri sacrum Marcus Sextius Epaphroditus","votive inscription","votive inscription","NULL","Dalmatia","Dalmatia","Vid / Narona","Narona","Metković","tria nomina, viri",43.0801,17.625,1
"174",6468,474925,"EDCS-30800076","HD034165",1,150,"------ C?]leme[nti? ------","Clementi","votive inscription","votive inscription","NULL","Dalmatia","Dalmatia","Vid / Narona","Narona","Metković",NA,43.0801,17.625,1
"175",6570,475027,"EDCS-28400330","HD061155",1,150,"Q(uintus) Blassius / Firmus Dia/nae conser/[va]trici pos(u)it / [liben]s merito","Quintus Blassius Firmus Dianae conservatrici posuit libens merito","votive inscription","votive inscription","altar","Dalmatia","Dalmatia","Vis / Issa","Issa, insula","Vis","tria nomina, viri",43.0655,16.1865,1
"176",6578,475036,"EDCS-30600034","HD061151",1,150,"I(ovi) O(ptimo) M(aximo) Aug(usto) sacrum / C(aius) Valius Festus conditor vineae huius / loci qui nunc Valianus a Festo dicitur / aeternumque tenet per saecula nomen / voto succepto(!) aram adampliavit et / tauro immolando dedicavit","Iovi Optimo Maximo Augusto sacrum Caius Valius Festus conditor vineae huius loci qui nunc Valianus a Festo dicitur aeternum que tenet per saecula nomen voto succepto aram adampliavit et tauro immolando dedicavit","votive inscription","votive inscription","NULL","Dalmatia","Dalmatia","Vis / Issa","Issa, insula","Vis","officium/professio, tria nomina, viri",43.0655,16.1865,1
"177",6595,475054,"EDCS-31400258","HD032910",1,150,"C(aius) Aponius / Verus / Silvano / et Genio / Epetinorun(!) / v(otum) s(olvit) l(ibens) m(erito)","Caius Aponius Verus Silvano et Genio Epetinorun votum solvit libens merito","votive inscription","votive inscription","tabula","Dalmatia","Dalmatia","Visoka","Epetium","Split","tria nomina, viri",43.4987,16.5235,1
"178",6723,475182,"EDCS-28400154","HD060137",1,150,"Apollini Lycio / M(arcus) Publicius / Campanus ae/dituus iussu / ipsius d(edit) d(edicavit)","Apollini Lycio Marcus Publicius Campanus aedituus iussu ipsius dedit dedicavit","votive inscription","votive inscription","NULL","Dalmatia","Dalmatia","Zadar / Iader","Iader","Zadar, bei","sacerdotes pagani, tria nomina, viri",43.9393,15.4483,1
"179",6726,475185,"EDCS-28400157","HD060138",1,150,"C(aius) Egnatius / Secundus / ara Minervae / libe(n)s","Caius Egnatius Secundus ara Minervae libens","votive inscription","votive inscription","NULL","Dalmatia","Dalmatia","Zadar / Iader","Iader","Zadar","tria nomina, viri",44.115501,15.223778,1
"180",6747,475206,"EDCS-28400178","HD060211",1,150,"Mariae Q(uinti) f(iliae) / Paullae / d(onum) d(edit)","Mariae Quinti filiae Paullae donum dedit","votive inscription","votive inscription","NULL","Dalmatia","Dalmatia","Zadar / Iader","Iader","Zadar","mulieres, tria nomina",44.115501,15.223778,1
"181",6872,475334,"EDCS-10000926","HD034584",1,150,"Iovi Optum/o Maximo / Cornelia / C(ai) f(ilia) Tertia / v(otum) s(olvit) l(ibens) m(erito)","Iovi Optumo Maximo Cornelia Cai filia Tertia votum solvit libens merito","votive inscription","votive inscription","altar","Dalmatia","Dalmatia","Zadar / Iader","Aenona","Nin","mulieres, tria nomina",44.2435,15.1842,1
"182",727,468677,"EDCS-29900104","HD022580",14,150,"[---]ius / Quir(ina) / Genialis / [viator?] co(n)s(ulum) et / p[raet(orum)] sac[e]rd(os) / at(!) ar[a]m Caesar(i)s / dec(urio?) / [test]amen[to poni] / iussit / [l(ocus) d(atus) d(ecreto)] d(ecurionum)","ius Quirina Genialis viator consulum et praetorum sacerdos at aram Caesaris decurio testamento poni iussit locus datus decreto decurionum","votive inscription","votive inscription","statue base","Dalmatia","Dalmatia","Duklja / Duklje / Rusevine / Doclea","Doclea","Podgorica","Augusti/Augustae, officium/professio, sacerdotes pagani, tria nomina, viri",42.469,19.2615,1
"183",2326,470325,"EDCS-28701300","HD060893",14,150,"M(arcus) Attius Cinna [---](?) / ob honorem Aug(ustalitatis) [---](?) / [------","Marcus Attius Cinna ob honorem Augustalitatis","votive inscription","votive inscription","NULL","Dalmatia","Dalmatia","Podstrana / Pituntium","Pituntium","Podstrana","seviri Augustales, tria nomina, viri",43.4741,16.5681,1
"184",6354,474806,"EDCS-27500093","HD053377",14,150,"Genio plebis sac(rum) / L(ucius) Septimulenus Vitalis / Q(uintus) Lusius Acrabanus / Q(uintus) Iulius Daphnus / [M(arcus)] Curtius Sporus IIIIIIviri / ob h(onorem) m(agistri) M(ercuriales)","Genio plebis sacrum Lucius Septimulenus Vitalis Quintus Lusius Acrabanus Quintus Iulius Daphnus Marcus Curtius Sporus IIIIII viri ob honorem magistri Mercuriales","votive inscription","votive inscription","NULL","Dalmatia","Dalmatia","Vid / Narona","Narona","Metković","ordo decurionum, sacerdotes pagani, tria nomina, viri",43.0801,17.625,1
"185",6376,474828,"EDCS-27500161","HD053392",14,150,"Veneri Victri/ci Aug(ustae) sacr(um) C(aius) Ve/sius Cerdo IIIIII/vir TRIB","Veneri Victrici Augustae sacrum Caius Vesius Cerdo IIIIII vir TRIB","votive inscription","votive inscription","NULL","Dalmatia","Dalmatia","Vid / Narona","Narona","Čapljina","seviri Augustales, tria nomina, viri",43.0645,17.6884,1
"186",6377,474829,"EDCS-27500106","HD053393",14,150,"L(ucius) Lusius Corpio / L(ucius) Lusius Quintio / L(uci) lib(erti) IIIIIIvir(i) / m(agistri) M(ercuriales) ob h(onorem)","Lucius Lusius Corpio Lucius Lusius Quintio Luci liberti IIIIII viri magistri Mercuriales ob honorem","votive inscription","votive inscription","NULL","Dalmatia","Dalmatia","Vid / Narona","Narona","Metković","liberti/libertae, sacerdotes pagani, seviri Augustales, tria nomina, viri",43.0801,17.625,1
"187",6508,474965,"EDCS-66100166","HD060617",14,150,"------](?) / C(aius) Feresiu[s ---] / Diadume[nus] / IIII[II]vir v(otum) [s(olvit) l(ibens) m(erito)]","Caius Feresius Diadumenus IIIIII vir votum solvit libens merito","votive inscription","votive inscription","tabula","Dalmatia","Dalmatia","Vid / Narona","Narona","Metković","seviri Augustales, tria nomina, viri",43.0801,17.625,1
"188",97,468021,"EDCS-32300074","HD052278",51,150,"T(itus) Loantius / Rufus / praepositus / Iapodum / v(otum) s(olvit) l(ibens) m(erito)","Titus Loantius Rufus praepositus Iapodum votum solvit libens merito","votive inscription","votive inscription","altar","Dalmatia","Dalmatia","Bihac / Raetinium","Raetinium","Bihać","ordo decurionum, tria nomina, viri",44.7885,15.9292,1
"189",1487,469460,"EDCS-08900533","HD006009",51,150,"I(ovi) O(ptimo) M(aximo) [---] / Secund[us] / Aug(usti) lib(ertus) AT[---] / et Alb(ia) Ingen[ua] / cum Secun/dina filia e[x] / v(oto) p(ientissimi?) p(osuerunt)","Iovi Optimo Maximo Secundus Augusti libertus AT et Albia Ingenua cum Secundina filia ex voto pientissimi posuerunt","votive inscription","votive inscription","altar","Dalmatia","Dalmatia","Kolovrat / Municipium Splonistarum","NULL","Prijepolje","liberti/libertae, mulieres, tria nomina, viri",43.3691604,19.626587,1
"190",2204,470202,"EDCS-10101917","HD035265",51,150,"[Silvan]o Au[g(usto)] / [sa]cr(um) / [-] Aquilius / Rufus / d(ono) d(at)","Silvano Augusto sacrum Aquilius Rufus dono dat","votive inscription","votive inscription","altar","Dalmatia","Dalmatia","Plomin / Flanona","Flanona","Kršan","tria nomina, viri",45.1382,14.1801,1
"191",2205,470203,"EDCS-10101918","HD023356",51,150,"Vestae / Sex(tus) Aquilius / Lucifer / v(otum) s(olvit) l(ibens) m(erito)","Vestae Sextus Aquilius Lucifer votum solvit libens merito","votive inscription","votive inscription","altar","Dalmatia","Dalmatia","Plomin / Flanona","Flanona","Kršan","tria nomina, viri",45.1382,14.1801,1
"192",5533,473863,"EDCS-09500131","HD039916",51,150,"Bato Pei/ius Silva[n(o)] / d(onum) d(edit) l(ibens) m(erito)","Bato Peiius Silvano donum dedit libens merito","votive inscription","votive inscription","altar","Dalmatia","Dalmatia","Solin / Salona","Salonae","Kaštela","tria nomina, viri",43.5384,16.4743,1
"193",6559,475016,"EDCS-12000834","HD042302",51,150,"Fortun(a)e / sacrum / C(aius) Agrius / Fortunatus / v(otum) s(olvit) l(ibens) m(erito)","Fortunae sacrum Caius Agrius Fortunatus votum solvit libens merito","votive inscription","votive inscription","altar","Dalmatia","Dalmatia","Vid / Narona","Narona","Metković","tria nomina, viri",43.0801,17.625,1
"194",6560,475017,"EDCS-12000835","HD042303",51,150,"Castori et / Pol(l)uci sac(rum) / Q(uintus) Lusius Secundus / v(otum) s(olvit) l(ibens) m(erito)","Castori et Polluci sacrum Quintus Lusius Secundus votum solvit libens merito","votive inscription","votive inscription","NULL","Dalmatia","Dalmatia","Vid / Narona","Narona","Metković","tria nomina, viri",43.0801,17.625,1
"195",887,468839,"EDCS-67300064","HD056013",71,150,"I(ovi?) [O(ptimo)? M(aximo)?]","Iovi Optimo Maximo","votive inscription","votive inscription","altar","Dalmatia","Dalmatia","Glamoc / Municipium Salvium","Municipium Salvium","Glamoč",NA,44.1301,16.8281,1
"196",889,468841,"EDCS-67300066","HD056020",71,150,"I(ovi) O(ptimo) M(aximo) / [------","Iovi Optimo Maximo","votive inscription","votive inscription","altar","Dalmatia","Dalmatia","Glamoc / Municipium Salvium","Salviae","Glamoč",NA,44.0726,16.7894,1
"197",909,468861,"EDCS-07400599","HD012602",71,150,"I(ovi) O(ptimo) M(aximo) / [------","Iovi Optimo Maximo","votive inscription","votive inscription","altar","Dalmatia","Dalmatia","Glavica / Municipium Salvium","Municipium Salvium","Glamoč",NA,44.1301,16.8281,1
"198",992,468945,"EDCS-32700504","HD008787",71,150,"I(ovi) O(ptimo) M(aximo) / Cassius / Dasantis / c(o)h(ortis) III Alpin(orum) / tessera(rius) ce(nturia) Nun(nii) / Isiani / v(otum) s(olvit) l(ibens) m(erito)","Iovi Optimo Maximo Cassius Dasantis cohortis III Alpinorum tesserarius centuria Nunnii Isiani votum solvit libens merito","votive inscription","votive inscription","altar","Dalmatia","Dalmatia","Gornji Muc / Andetrium","Andetrium","Muć","milites, nomen singulare, tria nomina, viri",43.6922,16.5206,1
"199",2682,470685,"EDCS-28300131","HD058466",71,150,"Genio / municipii / Fl(avi) Scard(onae) / C(aius) Petronius / Firmus ob / honorem aug(uratus) / l(ocus) d(atus) d(ecreto) d(ecurionum)","Genio municipii Flavi Scardonae Caius Petronius Firmus ob honorem auguratus locus datus decreto decurionum","votive inscription","votive inscription","altar","Dalmatia","Dalmatia","Skradin / Scardona","Scardona","Skradin","sacerdotes pagani, tria nomina, viri",43.8227,15.9208,1
"200",2759,470765,"EDCS-64100461","HD072489",71,150,"Cereri A/ug(ustae) sac(rum) / Vic(toriae) et V[en(eri)] / Aug(ustis) Cn(aeus?) [--] / [------] / [------","Cereri Augustae sacrum Victoriae et Veneri Augustis Cnaeus","votive inscription","votive inscription","altar","Dalmatia","Dalmatia","Solin / Salona","Salonae","Solin","viri",43.5384,16.4743,1
"201",6379,474831,"EDCS-27500107","HD053394",71,150,"P(ublius) Mescenius / Trophimus / T(itus) Flavius Asiaticus / T(itus) Flavius Surus / L(ucius) Bovianius Pareus / IIIIIIviri / ob h(onorem) m(agistri) M(ercuriales)","Publius Mescenius Trophimus Titus Flavius Asiaticus Titus Flavius Surus Lucius Bovianius Pareus IIIIII viri ob honorem magistri Mercuriales","votive inscription","votive inscription","NULL","Dalmatia","Dalmatia","Vid / Narona","Narona","Metković","sacerdotes pagani, seviri Augustales, tria nomina, viri",43.0801,17.625,1
"202",6921,475384,"EDCS-10100768","HD034076",71,150,"I(ovi) O(ptimo) M(aximo) / Fulgerali / Vesii / Ravonius / et Hermes / v(otum) s(olverunt) l(ibentes) m(erito)","Iovi Optimo Maximo Fulgerali Vesii Ravonius et Hermes votum solverunt libentes merito","votive inscription","votive inscription","altar","Dalmatia","Dalmatia","Zupa","NULL","Drvar","tria nomina, viri",43.3369154,17.1125675,1
"203",1707,469684,"EDCS-07400595","HD012590",101,150,"Lib(ero) P(atri) s(acrum) Ulp(ia) / Victorina pro / salute sua p(osuit)","Libero Patri sacrum Ulpia Victorina pro salute sua posuit","votive inscription","votive inscription","relief","Dalmatia","Dalmatia","Livno / Bariduum / Delminium","NULL","Livno","mulieres, tria nomina",43.8259136,17.0042416,1
"204",2462,470464,"EDCS-26600667","HD050267",101,150,"T(itus) Hate/rius / Hila/rus / ob / hono/rem","Titus Haterius Hilarus ob honorem","votive inscription","votive inscription","honorific/grave/votive column","Dalmatia","Dalmatia","Risan / Risano / Risinium","Narona","Metković","tria nomina, viri",43.0801,17.625,1
"205",2715,470718,"EDCS-10000291","HD033229",101,150,"------] / [VIvir? Au]gustalis / [---]atria Felicla / [---]ria M(arci) f(ilia) Secunda / [v(otum)] s(olverunt) l(ibentes) m(erito)","VI vir Augustalis atria Felicla ria Marci filia Secunda votum solverunt libentes merito","votive inscription","votive inscription","altar","Dalmatia","Dalmatia","Skradin / Scardona","Scardona","Skradin","mulieres, seviri Augustales, tria nomina",43.8227,15.9208,1
"206",3595,471639,"EDCS-28701377","HD062372",101,150,"Laribus A[ug(ustis)] / familia P(ubli) Ul[pi] / Publ(i) Valenti[ni ------","Laribus Augustis familia Publi Ulpi Publi Valentini","votive inscription","votive inscription","architectural member","Dalmatia","Dalmatia","Solin / Salona","Salonae","Solin","tria nomina, viri",43.5384,16.4743,1
"207",6371,474823,"EDCS-27500102","HD053386",101,150,"Mercurio Aug(usto) sacr(um) / M(arcus) Ulpius Aug(usti) lib(ertus) Nedymus / C(aius) Pollius [Alb]anus / T(itus) Vetul[enus T(iti) l(ibertus)] Abas[ca]ntus / Q(uintus) Cornelius Augustalis / L(ucius) Volceius Cerdo / IIIIIIviri m(agistri) M(ercuriales) ob hon(orem)","Mercurio Augusto sacrum Marcus Ulpius Augusti libertus Nedymus Caius Pollius Albanus Titus Vetulenus Titi libertus Abascantus Quintus Cornelius Augustalis Lucius Volceius Cerdo IIIIII viri magistri Mercuriales ob honorem","votive inscription","votive inscription","NULL","Dalmatia","Dalmatia","Vid / Narona","Narona","Metković","liberti/libertae, seviri Augustales, tria nomina, viri",43.0801,17.625,1
"208",6378,474830,"EDCS-26600665","HD050196",101,150,"------] / M(arcus) Lusi[us] / Trofimas / M(arci) lib(ertus) / IIIIIIvir / m(agister) M(ercurialis) ob h(onorem)","Marcus Lusius Trofimas Marci libertus IIIIII vir magister Mercurialis ob honorem","votive inscription","votive inscription","NULL","Dalmatia","Dalmatia","Vid / Narona","Narona","Metković","liberti/libertae, sacerdotes pagani, seviri Augustales, tria nomina, viri",43.0801,17.625,1
"209",2860,470871,"EDCS-27500032","HD053740",102,150,"[H]erculi [---] / [S]ex(tus) Aquilli[us ---] / Severus |(centurio) coh(ortis) V[---] / donis donatus ab [Imp(eratore) Traiano bello] / Dacico dec(urio) Salonis et Flano[nae] / l(ocus) d(atus) d(ecreto) d(ecurionum)","Herculi Sextus Aquillius Severus centurio cohortis V donis donatus ab Imperatore Traiano bello Dacico decurio Salonis et Flanonae locus datus decreto decurionum","votive inscription","votive inscription","NULL","Dalmatia","Dalmatia","Solin / Salona","Salonae","Solin","Augusti/Augustae, milites, ordo decurionum, tria nomina, viri",43.5384,16.4743,1
"210",1166,469129,"EDCS-28300153","HD058254",117,150,"I(ovi) O(ptimo) M(aximo) C(onservatori?) / P(ublius) Aelius / Andes / Barcini / v(otum) s(olvit) l(ibens) m(erito)","Iovi Optimo Maximo Conservatori Publius Aelius Andes Barcini votum solvit libens merito","votive inscription","votive inscription","altar","Dalmatia","Dalmatia","Ivosevci / Burnum","Burnum","Ervenik","nomen singulare, tria nomina, viri",44.0317,15.9936,1
"211",6669,475128,"EDCS-29900053","HD057800",121,150,"I(nvicto?) p(atri) // Ael(ius) Aelianus / eq(ues) praet(orianus) et / Ulp(ius) Licinius / a scr(iniis) praef(ecti) / sancxer(unt)(!)","Invicto patri Aelius Aelianus eques praetorianus et Ulpius Licinius a scriniis praefecti sancxerunt","votive inscription","votive inscription","altar","Dalmatia","Dalmatia","Vrlika / Vrlica / Salona","NULL","Vrlika","milites, tria nomina, viri",43.9096687,16.3977809,1
"212",2592,470595,"EDCS-10000931","HD020913",138,161,"S(oli) I(nvicto) M(ithrae) / Faustus / T(iti) Iul(i) Saturni/ni praef(ecti) vehi/culor(um) et cond/uct(oris) p(ublici) p(ortorii) ser(vus) vil(icus) / pro se et suis / v(otum) s(olvit) l(ibens) m(erito)","Soli Invicto Mithrae Faustus Titi Iuli Saturnini praefecti vehiculorum et conductoris publici portorii servus vilicus pro se et suis votum solvit libens merito","votive inscription","votive inscription","altar","Dalmatia","Dalmatia","Senj / Segna / Zengg / Senia","Senia","Senj","nomen singulare, officium/professio, ordo equester, servi/servae, tria nomina, viri",44.9931,14.902,1
"213",1904,469890,"EDCS-32200004","HD035657",1,170,"Trosia / Prima / Buccionis l(iberta) / v(otum) s(olvit) l(ibens) m(erito)","Trosia Prima Buccionis liberta votum solvit libens merito","votive inscription","votive inscription","altar","Dalmatia","Dalmatia","Nadin / Nedinum","Nedinum","Benkovac","liberti/libertae, mulieres, nomen singulare, tria nomina, viri",44.0721,15.5095,1
"214",2577,470580,"EDCS-12000842","HD042312",71,170,"------] / L[---] / aedem [---] / ampl[iavit ---] / [------","L aedem ampliavit","votive inscription","votive inscription","tabula","Dalmatia","Dalmatia","Senj / Segna / Zengg / Senia","Senia","Senj",NA,44.9931,14.902,1
"215",6648,475107,"EDCS-28300084","HD062412",71,170,"I(ovi) O(ptimo) M(aximo) / M(arcus) Iunius / Fadenus / dec(urio) eq(uitum) / coh(ortis) III / Alpinor(um) / v(otum) s(olvit) l(ibens) m(erito)","Iovi Optimo Maximo Marcus Iunius Fadenus decurio equitum cohortis III Alpinorum votum solvit libens merito","votive inscription","votive inscription","altar","Dalmatia","Dalmatia","Vrlika / Vrlica / Salona","Municipium Magnum","Drniš","milites, tria nomina, viri",43.8047,16.2988,1
"216",496,468439,"EDCS-10000796","HD034268",117,170,"[I(ovi)] O(ptimo) M(aximo) / P(ublius)(?) Ael(ius) Quin(tus) / v(otum) s(olvit) l(ibens) m(erito)","Iovi Optimo Maximo Publius Aelius Quintus votum solvit libens merito","votive inscription","votive inscription","altar","Dalmatia","Dalmatia","Crvenice / Delminium","Delminium","Tomislavgrad","tria nomina, viri",43.7183,17.2302,1
"217",980,468933,"EDCS-28300069","HD061928",131,170,"Turran[i]us Fir(mus) / vexil(larius) coh(ortis) I Bel(garum) / Mercurio / v(otum) s(olvit) l(ibens) m(erito)","Turranius Firmus vexillarius cohortis I Belgarum Mercurio votum solvit libens merito","votive inscription","votive inscription","NULL","Dalmatia","Dalmatia","Gornji Muc / Andetrium","Andetrium","Muć","milites, tria nomina, viri",43.6922,16.5206,1
"218",1465,469438,"EDCS-32300040","HD058126",131,170,"I(ano?) [p(atri)?] / P(ublius) Ae&lt;l=I&gt;(ius) Cas[tus?] / v(otum) s(olvit) libe(n)s / m(erito) som[nio admonitus?] ","Iano patri Publius Ae lt l gt ius Castus votum solvit libens merito somnio admonitus","votive inscription","votive inscription","altar","Dalmatia","Dalmatia","Knin / Burnum","Burnum","Kistanje","tria nomina, viri",44.0317,15.9936,1
"219",2441,470442,"EDCS-30200144","HD058344",131,170,"S(ilvano) A(ugusto) s(acrum) / P(ublius) Ael(ius) / Aper","Silvano Augusto sacrum Publius Aelius Aper","votive inscription","votive inscription","altar","Dalmatia","Dalmatia","Ramljane / Municipium Magnum","Municipium Magnum","Muć","mulieres, tria nomina",43.8047,16.2988,1
"220",2892,470903,"EDCS-27500079","HD054159",131,170,"Mesc(enia) / Tert(ia) / felici/ter","Mescenia Tertia feliciter","votive inscription","votive inscription","relief","Dalmatia","Dalmatia","Solin / Salona","Salonae","Split","mulieres, tria nomina",43.5384,16.4743,1
"221",6366,474818,"EDCS-27500099","HD053384",101,171,"L(ibero) A(ugusto) s(acrum) / Lusius / Felicio / L(uci) Lusi Se/verini / libert(us) p(osuit)","Libero Augusto sacrum Lusius Felicio Luci Lusi Severini libertus posuit","votive inscription","votive inscription","NULL","Dalmatia","Dalmatia","Vid / Narona","Narona","Metković","liberti/libertae, tria nomina, viri",43.0801,17.625,1
"222",2499,470501,"EDCS-30800073","HD023076",131,171,"L(ibero) B(accho) / P(ublius) Ael(ius) Cleme(ns) / [---] veter(anus) / [---]E AE/[---]T[--]SOS[---]/[---]E/[---] b(ene?) v(otum) s(olvit) // I(ovi) O(ptimo) M(aximo) / P(ublius) Ael(ius) Clemen[s] / l(ibens?) [---] pos(uit?) / [--]V[---] / s(ua?) p(ecunia?) TAE LV E / v(otum) s(olvit) l(ibens) m(erito)","Libero Baccho Publius Aelius Clemens veteranus E AE T SOS E bene votum solvit Iovi Optimo Maximo Publius Aelius Clemens libens posuit V sua pecunia TAE LV E votum solvit libens merito","votive inscription","votive inscription","altar","Dalmatia","Dalmatia","Rogatica / Ris[]","Ris---","Rogatica","milites, tria nomina, viri",43.7977,18.9996,1
"223",6165,474612,"EDCS-31400255","HD053180",161,180,"D(eo) I(nvicto) M(ithrae) a[c Ge]/niis sac[r(orum)] / Augusto[r(um)] / Rus(---) Pin(nes) mi/les / co(hortis) prim(ae) / Bel(garum) immunis / libens merito / posuit","Deo Invicto Mithrae ac Geniis sacrorum Augustorum Rus Pinnes miles cohortis primae Belgarum immunis libens merito posuit","votive inscription","votive inscription","NULL","Dalmatia","Dalmatia","Tihaljina","Aufustianis","Grude","milites, tria nomina, viri",43.3203,17.3588,1
"224",759,468709,"EDCS-10100782","HD023832",187,187,"I(ovi) O(ptimo) M(aximo) / Eponae Re[g(inae)] / Genio loci / C(aius) Ocratius / Lacon b(ene)f(iciarius) co(n)s(ularis) / leg(ionis) I adiutr(icis) / v(otum) s(olvit) l(ibens) m(erito) / Crispino et Aeliano / co(n)s(ulibus)","Iovi Optimo Maximo Eponae Reginae Genio loci Caius Ocratius Lacon beneficiarius consularis legionis I adiutricis votum solvit libens merito Crispino et Aeliano consulibus","votive inscription","votive inscription","altar","Dalmatia","Dalmatia","Duklja / Duklje / Rusevine / Doclea","Doclea","Podgorica","milites, tria nomina, viri",42.469,19.2615,1
"225",2865,470876,"EDCS-27500072","HD053752",191,191,"I(ovi) O(ptimo) M(aximo) / Q(uintus) Raonius / Diodorus ex / voto posuit / libe(n)s merito / IIII Idus Maias / [A]proniano et / Bradua co(n)s(ulibus)","Iovi Optimo Maximo Quintus Raonius Diodorus ex voto posuit libens merito IIII Idus Maias Aproniano et Bradua consulibus","votive inscription","votive inscription","NULL","Dalmatia","Dalmatia","Solin / Salona","Salonae","Split","tria nomina, viri",43.5384,16.4743,1
"226",6876,475338,"EDCS-10101899","HD018927",140,192,"[---] divae Fau[stinae ---]","divae Faustinae","votive inscription","votive inscription","architectural member","Dalmatia","Dalmatia","Zadar / Iader","Iader","Zadar",NA,44.115501,15.223778,1
"227",6636,475095,"EDCS-27500013","HD053697",151,192,"I(ovi) O(ptimo) M(aximo) / Sulpicius Cal/vio c(enturio) leg(ionis) I M(inerviae) pr/aepositus c(o)h/o(rtis) I Belg(arum) hoc in / loco maiesta/te et numin(e) / eius servat/us","Iovi Optimo Maximo Sulpicius Calvio centurio legionis I Minerviae praepositus cohortis I Belgarum hoc in loco maiestate et numine eius servatus","votive inscription","votive inscription","honorific/grave/votive column","Dalmatia","Dalmatia","Vrgorac / Vergorazza / Vergoratz","NULL","Vrgorac","milites, tria nomina, viri",43.2050358,17.3723608,1
"228",516,468460,"EDCS-28300099","HD062406",116,198,"Veneri / Victrici / Part(h)icae / Aug(ustae) sac(rum) / in memoriam / Antoniae / Dec(imi) f(iliae) Paulae / Dec(imus) Antonius / Proculus decur(io) / Salon(ae) et Coponia / parentes / l(ocus) d(atus) d(ecreto) d(ecurionum)","Veneri Victrici Parthicae Augustae sacrum in memoriam Antoniae Decimi filiae Paulae Decimus Antonius Proculus decurio Salonae et Coponia parentes locus datus decreto decurionum","votive inscription","votive inscription","NULL","Dalmatia","Dalmatia","Danilo Gornje / Rider","Rider","Šibenik","mulieres, nomen singulare, ordo decurionum, tria nomina, viri",43.7034,16.0486,1
